[
  {
    "name": "Putnam County Airport",
    "code": "4I7",
    "latitude": 39.6335556,
    "longitude": -86.8138056
  },
  {
    "name": "Dowagiac Municipal Airport",
    "code": "C91",
    "latitude": 41.9929342,
    "longitude": -86.1280125
  },
  {
    "name": "Cambridge Municipal Airport",
    "code": "CDI",
    "latitude": 39.9750278,
    "longitude": -81.5775833
  },
  {
    "name": "Door County Cherryland Airport",
    "code": "SUE",
    "latitude": 44.8436667,
    "longitude": -87.4215556
  },
  {
    "name": "Shoestring Aviation Airfield",
    "code": "0P2",
    "latitude": 39.7948244,
    "longitude": -76.6471914
  },
  {
    "name": "Eastern Oregon Regional Airport",
    "code": "PDT",
    "latitude": 45.695,
    "longitude": -118.841389
  },
  {
    "name": "Tyonek Airport",
    "code": "TYE",
    "latitude": 61.076667,
    "longitude": -151.138056
  },
  {
    "name": "Riverton Regional",
    "code": "RIW",
    "latitude": 43.064167,
    "longitude": -108.459722
  },
  {
    "name": "Montrose Regional Airport",
    "code": "MTJ",
    "latitude": 38.509794,
    "longitude": -107.894242
  },
  {
    "name": "Clow International Airport",
    "code": "1CS",
    "latitude": 41.6959744,
    "longitude": -88.1292306
  },
  {
    "name": "Kenosha Regional Airport",
    "code": "ENW",
    "latitude": 42.5956944,
    "longitude": -87.9278056
  },
  {
    "name": "North Las Vegas Airport",
    "code": "VGT",
    "latitude": 36.2106944,
    "longitude": -115.1944444
  },
  {
    "name": "Brown County Airport",
    "code": "",
    "latitude": 38.8819456,
    "longitude": -83.8827367
  },
  {
    "name": "Grand Geneva Resort Airport",
    "code": "C02",
    "latitude": 42.6149167,
    "longitude": -88.3895833
  },
  {
    "name": "De Kalb Taylor Municipal Airport",
    "code": "DKB",
    "latitude": 41.9338342,
    "longitude": -88.7056864
  },
  {
    "name": "Purude University Airport",
    "code": "LAF",
    "latitude": 40.4123056,
    "longitude": -86.9368889
  },
  {
    "name": "Miami University Airport",
    "code": "OXD",
    "latitude": 39.5022607,
    "longitude": -84.7843814
  },
  {
    "name": "Delaware County Airport",
    "code": "MIE",
    "latitude": 40.2424722,
    "longitude": -85.39575
  },
  {
    "name": "Point Roberts Airpark",
    "code": "1RL",
    "latitude": 48.9797222,
    "longitude": -123.0788889
  },
  {
    "name": "Macomb Municipal Airport",
    "code": "MQB",
    "latitude": 40.5200833,
    "longitude": -90.6523889
  },
  {
    "name": "Wausau Downtown Airport",
    "code": "AUW",
    "latitude": 44.9262845,
    "longitude": -89.6270018
  },
  {
    "name": "Portage Municipal Airport",
    "code": "C47",
    "latitude": 43.5603136,
    "longitude": -89.4828607
  },
  {
    "name": "Gogebic Iron County Airport",
    "code": "IWD",
    "latitude": 46.5274747,
    "longitude": -90.1313967
  },
  {
    "name": "Mackinac Island Airport",
    "code": "MCD",
    "latitude": 45.8649344,
    "longitude": -84.637344
  },
  {
    "name": "Grand Marais Cook County Airport",
    "code": "GRM",
    "latitude": 47.8383333,
    "longitude": -90.3829444
  },
  {
    "name": "Porter County Municipal Airport",
    "code": "NPZ",
    "latitude": 41.4539722,
    "longitude": -87.0070833
  },
  {
    "name": "Silverton",
    "code": "",
    "latitude": 37.812545,
    "longitude": -107.662994
  },
  {
    "name": "McCarthy Airport",
    "code": "MXY",
    "latitude": 61.4370608,
    "longitude": -142.90307372
  },
  {
    "name": "Seward Airport",
    "code": "SWD",
    "latitude": 60.1269383,
    "longitude": -149.4188122
  },
  {
    "name": "Michigan City Municipal Airport",
    "code": "MGC",
    "latitude": 41.7033,
    "longitude": -86.8211
  },
  {
    "name": "East Glacier Park Amtrak Station",
    "code": "",
    "latitude": 48.443965,
    "longitude": -113.218556
  },
  {
    "name": "Allakaket Airport",
    "code": "AET",
    "latitude": 66.5519,
    "longitude": -152.6222
  },
  {
    "name": "Yakutat",
    "code": "YAK",
    "latitude": 59.3012,
    "longitude": -139.3937
  },
  {
    "name": "Sawyer International Airport",
    "code": "MQT",
    "latitude": 46.353611,
    "longitude": -87.395278
  },
  {
    "name": "Ford Airport",
    "code": "IMT",
    "latitude": 45.8183611,
    "longitude": -88.1145556
  },
  {
    "name": "Delta County Airport",
    "code": "ESC",
    "latitude": 45.722778,
    "longitude": -87.093611
  },
  {
    "name": "Williamson Country Regional Airport",
    "code": "MWA",
    "latitude": 37.7549569,
    "longitude": -89.0110936
  },
  {
    "name": "Barter Island Lrrs",
    "code": "BTI",
    "latitude": 70.133989,
    "longitude": -143.581867
  },
  {
    "name": "Wainwright As",
    "code": "K03",
    "latitude": 70.613378,
    "longitude": -159.86035
  },
  {
    "name": "Cape Lisburne Lrrs",
    "code": "LUR",
    "latitude": 68.875133,
    "longitude": -166.110022
  },
  {
    "name": "Point Lay Lrrs",
    "code": "PIZ",
    "latitude": 69.732875,
    "longitude": -163.005342
  },
  {
    "name": "Hilo Intl",
    "code": "ITO",
    "latitude": 19.721375,
    "longitude": -155.048469
  },
  {
    "name": "Executive",
    "code": "ORL",
    "latitude": 28.545464,
    "longitude": -81.332936
  },
  {
    "name": "Bettles",
    "code": "BTT",
    "latitude": 66.913944,
    "longitude": -151.529056
  },
  {
    "name": "Clear",
    "code": "Z84",
    "latitude": 64.301203,
    "longitude": -149.120144
  },
  {
    "name": "Indian Mountain Lrrs",
    "code": "UTO",
    "latitude": 65.992794,
    "longitude": -153.704289
  },
  {
    "name": "Fort Yukon",
    "code": "FYU",
    "latitude": 66.571492,
    "longitude": -145.250417
  },
  {
    "name": "Sparrevohn Lrrs",
    "code": "SVW",
    "latitude": 61.097369,
    "longitude": -155.574228
  },
  {
    "name": "Bryant Ahp",
    "code": "FRN",
    "latitude": 61.266381,
    "longitude": -149.653119
  },
  {
    "name": "Tatalina Lrrs",
    "code": "TLJ",
    "latitude": 62.894369,
    "longitude": -155.976525
  },
  {
    "name": "Cape Romanzof Lrrs",
    "code": "CZF",
    "latitude": 61.780297,
    "longitude": -166.038747
  },
  {
    "name": "Laurence G Hanscom Fld",
    "code": "BED",
    "latitude": 42.469953,
    "longitude": -71.289031
  },
  {
    "name": "St Paul Island",
    "code": "SNP",
    "latitude": 57.167333,
    "longitude": -170.220444
  },
  {
    "name": "Cape Newenham Lrrs",
    "code": "EHM",
    "latitude": 58.646428,
    "longitude": -162.062778
  },
  {
    "name": "St George",
    "code": "PBV",
    "latitude": 56.578344,
    "longitude": -169.661611
  },
  {
    "name": "Iliamna",
    "code": "ILI",
    "latitude": 59.754356,
    "longitude": -154.910961
  },
  {
    "name": "Platinum",
    "code": "PTU",
    "latitude": 59.011356,
    "longitude": -161.819664
  },
  {
    "name": "Big Mountain Afs",
    "code": "BMX",
    "latitude": 59.361247,
    "longitude": -155.258822
  },
  {
    "name": "Oscoda Wurtsmith",
    "code": "OSC",
    "latitude": 44.451558,
    "longitude": -83.394053
  },
  {
    "name": "Marina Muni",
    "code": "OAR",
    "latitude": 36.681878,
    "longitude": -121.762347
  },
  {
    "name": "Sacramento Mather",
    "code": "MHR",
    "latitude": 38.553897,
    "longitude": -121.297592
  },
  {
    "name": "Bicycle Lake Aaf",
    "code": "BYS",
    "latitude": 35.280531,
    "longitude": -116.630031
  },
  {
    "name": "Twentynine Palms Eaf",
    "code": "NXP",
    "latitude": 34.296161,
    "longitude": -116.162203
  },
  {
    "name": "Fort Smith Rgnl",
    "code": "FSM",
    "latitude": 35.336583,
    "longitude": -94.367444
  },
  {
    "name": "Merrill Fld",
    "code": "MRI",
    "latitude": 61.213544,
    "longitude": -149.844447
  },
  {
    "name": "Grants Milan Muni",
    "code": "GNT",
    "latitude": 35.167286,
    "longitude": -107.901989
  },
  {
    "name": "Ponca City Rgnl",
    "code": "PNC",
    "latitude": 36.731958,
    "longitude": -97.099781
  },
  {
    "name": "Hunter Aaf",
    "code": "SVN",
    "latitude": 32.01,
    "longitude": -81.145683
  },
  {
    "name": "Grand Forks Intl",
    "code": "GFK",
    "latitude": 47.949256,
    "longitude": -97.176111
  },
  {
    "name": "Grider Fld",
    "code": "PBF",
    "latitude": 34.173142,
    "longitude": -91.935597
  },
  {
    "name": "Whiting Fld Nas North",
    "code": "NSE",
    "latitude": 30.724167,
    "longitude": -87.021944
  },
  {
    "name": "Hana",
    "code": "HNM",
    "latitude": 20.795636,
    "longitude": -156.014439
  },
  {
    "name": "Ernest A Love Fld",
    "code": "PRC",
    "latitude": 34.654472,
    "longitude": -112.419583
  },
  {
    "name": "Trenton Mercer",
    "code": "TTN",
    "latitude": 40.276692,
    "longitude": -74.813469
  },
  {
    "name": "General Edward Lawrence Logan Intl",
    "code": "BOS",
    "latitude": 42.364347,
    "longitude": -71.005181
  },
  {
    "name": "Travis Afb",
    "code": "SUU",
    "latitude": 38.262692,
    "longitude": -121.927464
  },
  {
    "name": "Griffiss Afld",
    "code": "RME",
    "latitude": 43.2338,
    "longitude": -75.407033
  },
  {
    "name": "Wendover",
    "code": "ENV",
    "latitude": 40.718694,
    "longitude": -114.030889
  },
  {
    "name": "Mobile Downtown",
    "code": "BFM",
    "latitude": 30.626783,
    "longitude": -88.068092
  },
  {
    "name": "Metropolitan Oakland Intl",
    "code": "OAK",
    "latitude": 37.721278,
    "longitude": -122.220722
  },
  {
    "name": "Eppley Afld",
    "code": "OMA",
    "latitude": 41.303167,
    "longitude": -95.894069
  },
  {
    "name": "Port Angeles Cgas",
    "code": "NOW",
    "latitude": 48.141481,
    "longitude": -123.414075
  },
  {
    "name": "Kahului",
    "code": "OGG",
    "latitude": 20.89865,
    "longitude": -156.430458
  },
  {
    "name": "Wichita Mid Continent",
    "code": "ICT",
    "latitude": 37.649944,
    "longitude": -97.433056
  },
  {
    "name": "Kansas City Intl",
    "code": "MCI",
    "latitude": 39.297606,
    "longitude": -94.713905
  },
  {
    "name": "Dane Co Rgnl Truax Fld",
    "code": "MSN",
    "latitude": 43.139858,
    "longitude": -89.337514
  },
  {
    "name": "Dillingham",
    "code": "DLG",
    "latitude": 59.044667,
    "longitude": -158.5055
  },
  {
    "name": "Boone Co",
    "code": "HRO",
    "latitude": 36.261519,
    "longitude": -93.154728
  },
  {
    "name": "Phoenix Sky Harbor Intl",
    "code": "PHX",
    "latitude": 33.434278,
    "longitude": -112.011583
  },
  {
    "name": "Bangor Intl",
    "code": "BGR",
    "latitude": 44.807444,
    "longitude": -68.828139
  },
  {
    "name": "Fort Lauderdale Executive",
    "code": "FXE",
    "latitude": 26.197281,
    "longitude": -80.170706
  },
  {
    "name": "East Texas Rgnl",
    "code": "GGG",
    "latitude": 32.384014,
    "longitude": -94.711486
  },
  {
    "name": "Anderson Rgnl",
    "code": "AND",
    "latitude": 34.494583,
    "longitude": -82.709389
  },
  {
    "name": "Spokane Intl",
    "code": "GEG",
    "latitude": 47.619861,
    "longitude": -117.533833
  },
  {
    "name": "North Perry",
    "code": "HWO",
    "latitude": 26.001222,
    "longitude": -80.240722
  },
  {
    "name": "San Francisco Intl",
    "code": "SFO",
    "latitude": 37.618972,
    "longitude": -122.374889
  },
  {
    "name": "Cut Bank Muni",
    "code": "CTB",
    "latitude": 48.608353,
    "longitude": -112.376144
  },
  {
    "name": "Acadiana Rgnl",
    "code": "ARA",
    "latitude": 30.037758,
    "longitude": -91.883896
  },
  {
    "name": "Gainesville Rgnl",
    "code": "GNV",
    "latitude": 29.690056,
    "longitude": -82.271778
  },
  {
    "name": "Memphis Intl",
    "code": "MEM",
    "latitude": 35.042417,
    "longitude": -89.976667
  },
  {
    "name": "Bisbee Douglas Intl",
    "code": "DUG",
    "latitude": 31.469028,
    "longitude": -109.603667
  },
  {
    "name": "Allen Aaf",
    "code": "BIG",
    "latitude": 63.994547,
    "longitude": -145.721642
  },
  {
    "name": "Tstc Waco",
    "code": "CNW",
    "latitude": 31.637831,
    "longitude": -97.074139
  },
  {
    "name": "Annette Island",
    "code": "ANN",
    "latitude": 55.042436,
    "longitude": -131.572233
  },
  {
    "name": "Caribou Muni",
    "code": "CAR",
    "latitude": 46.8715,
    "longitude": -68.017917
  },
  {
    "name": "Little Rock Afb",
    "code": "LRF",
    "latitude": 34.916944,
    "longitude": -92.149722
  },
  {
    "name": "Redstone Aaf",
    "code": "HUA",
    "latitude": 34.678653,
    "longitude": -86.684781
  },
  {
    "name": "Pope Field",
    "code": "POB",
    "latitude": 35.170883,
    "longitude": -79.014472
  },
  {
    "name": "Dalhart Muni",
    "code": "DHT",
    "latitude": 36.022586,
    "longitude": -102.547278
  },
  {
    "name": "Laughlin Afb",
    "code": "DLF",
    "latitude": 29.359486,
    "longitude": -100.777975
  },
  {
    "name": "Los Angeles Intl",
    "code": "LAX",
    "latitude": 33.942536,
    "longitude": -118.408075
  },
  {
    "name": "Anniston Metro",
    "code": "ANB",
    "latitude": 33.588167,
    "longitude": -85.858111
  },
  {
    "name": "Cleveland Hopkins Intl",
    "code": "CLE",
    "latitude": 41.411689,
    "longitude": -81.849794
  },
  {
    "name": "Dover Afb",
    "code": "DOV",
    "latitude": 39.129539,
    "longitude": -75.465958
  },
  {
    "name": "Cincinnati Northern Kentucky Intl",
    "code": "CVG",
    "latitude": 39.048836,
    "longitude": -84.667822
  },
  {
    "name": "Tipton",
    "code": "FME",
    "latitude": 39.085386,
    "longitude": -76.759414
  },
  {
    "name": "China Lake Naws",
    "code": "NID",
    "latitude": 35.685422,
    "longitude": -117.692039
  },
  {
    "name": "Huron Rgnl",
    "code": "HON",
    "latitude": 44.3852,
    "longitude": -98.228542
  },
  {
    "name": "Juneau Intl",
    "code": "JNU",
    "latitude": 58.354972,
    "longitude": -134.576278
  },
  {
    "name": "Lafayette Rgnl",
    "code": "LFT",
    "latitude": 30.205278,
    "longitude": -91.987611
  },
  {
    "name": "Newark Liberty Intl",
    "code": "EWR",
    "latitude": 40.6925,
    "longitude": -74.168667
  },
  {
    "name": "Boise Air Terminal",
    "code": "BOI",
    "latitude": 43.564361,
    "longitude": -116.222861
  },
  {
    "name": "Creech Afb",
    "code": "INS",
    "latitude": 36.587183,
    "longitude": -115.673353
  },
  {
    "name": "Garden City Rgnl",
    "code": "GCK",
    "latitude": 37.927528,
    "longitude": -100.724417
  },
  {
    "name": "Minot Intl",
    "code": "MOT",
    "latitude": 48.259378,
    "longitude": -101.280333
  },
  {
    "name": "Wheeler Aaf",
    "code": "HHI",
    "latitude": 21.4835,
    "longitude": -158.039667
  },
  {
    "name": "Maxwell Afb",
    "code": "MXF",
    "latitude": 32.382944,
    "longitude": -86.365778
  },
  {
    "name": "Robinson Aaf",
    "code": "RBM",
    "latitude": 34.850089,
    "longitude": -92.300153
  },
  {
    "name": "Dallas Love Fld",
    "code": "DAL",
    "latitude": 32.847111,
    "longitude": -96.851778
  },
  {
    "name": "Butts Aaf",
    "code": "FCS",
    "latitude": 38.678394,
    "longitude": -104.756581
  },
  {
    "name": "Helena Rgnl",
    "code": "HLN",
    "latitude": 46.606806,
    "longitude": -111.98275
  },
  {
    "name": "Miramar Mcas",
    "code": "NKX",
    "latitude": 32.867694,
    "longitude": -117.14175
  },
  {
    "name": "Luke Afb",
    "code": "LUF",
    "latitude": 33.535,
    "longitude": -112.38306
  },
  {
    "name": "Hurlburt Fld",
    "code": "HRT",
    "latitude": 30.427803,
    "longitude": -86.689278
  },
  {
    "name": "Jack Northrop Fld Hawthorne Muni",
    "code": "HHR",
    "latitude": 33.922839,
    "longitude": -118.335186
  },
  {
    "name": "Houlton Intl",
    "code": "HUL",
    "latitude": 46.123083,
    "longitude": -67.792056
  },
  {
    "name": "Vance Afb",
    "code": "END",
    "latitude": 36.339167,
    "longitude": -97.9165
  },
  {
    "name": "Point Mugu Nas",
    "code": "NTD",
    "latitude": 34.120285,
    "longitude": -119.12094
  },
  {
    "name": "Edwards Afb",
    "code": "EDW",
    "latitude": 34.905417,
    "longitude": -117.883739
  },
  {
    "name": "Lake Charles Rgnl",
    "code": "LCH",
    "latitude": 30.126112,
    "longitude": -93.223335
  },
  {
    "name": "Kona Intl At Keahole",
    "code": "KOA",
    "latitude": 19.738767,
    "longitude": -156.045631
  },
  {
    "name": "Myrtle Beach Intl",
    "code": "MYR",
    "latitude": 33.67975,
    "longitude": -78.928333
  },
  {
    "name": "Lemoore Nas",
    "code": "NLC",
    "latitude": 36.333012,
    "longitude": -119.95208
  },
  {
    "name": "Nantucket Mem",
    "code": "ACK",
    "latitude": 41.253053,
    "longitude": -70.060181
  },
  {
    "name": "Felker Aaf",
    "code": "FAF",
    "latitude": 37.1325,
    "longitude": -76.608841
  },
  {
    "name": "Campbell Aaf",
    "code": "HOP",
    "latitude": 36.668567,
    "longitude": -87.496183
  },
  {
    "name": "Ronald Reagan Washington Natl",
    "code": "DCA",
    "latitude": 38.852083,
    "longitude": -77.037722
  },
  {
    "name": "Patuxent River Nas",
    "code": "NHK",
    "latitude": 38.285981,
    "longitude": -76.411781
  },
  {
    "name": "Palacios Muni",
    "code": "PSX",
    "latitude": 28.727508,
    "longitude": -96.250958
  },
  {
    "name": "Arkansas Intl",
    "code": "BYH",
    "latitude": 35.964347,
    "longitude": -89.943956
  },
  {
    "name": "Atlantic City Intl",
    "code": "ACY",
    "latitude": 39.457583,
    "longitude": -74.577167
  },
  {
    "name": "Tinker Afb",
    "code": "TIK",
    "latitude": 35.414739,
    "longitude": -97.386633
  },
  {
    "name": "Elizabeth City Cgas Rgnl",
    "code": "ECG",
    "latitude": 36.260581,
    "longitude": -76.174572
  },
  {
    "name": "Pueblo Memorial",
    "code": "PUB",
    "latitude": 38.289085,
    "longitude": -104.496572
  },
  {
    "name": "Northern Maine Rgnl At Presque Isle",
    "code": "PQI",
    "latitude": 46.688958,
    "longitude": -68.044797
  },
  {
    "name": "Kirtland Air Force Base",
    "code": "IKR",
    "latitude": 35.040222,
    "longitude": -106.609194
  },
  {
    "name": "Gray Aaf",
    "code": "GRF",
    "latitude": 47.079217,
    "longitude": -122.580783
  },
  {
    "name": "Kodiak",
    "code": "ADQ",
    "latitude": 57.749967,
    "longitude": -152.493856
  },
  {
    "name": "Upolu",
    "code": "UPP",
    "latitude": 20.265256,
    "longitude": -155.859989
  },
  {
    "name": "Fort Lauderdale Hollywood Intl",
    "code": "FLL",
    "latitude": 26.072583,
    "longitude": -80.15275
  },
  {
    "name": "Davis Fld",
    "code": "MKO",
    "latitude": 35.656489,
    "longitude": -95.366656
  },
  {
    "name": "Falls Intl",
    "code": "INL",
    "latitude": 48.566186,
    "longitude": -93.403067
  },
  {
    "name": "Salt Lake City Intl",
    "code": "SLC",
    "latitude": 40.788389,
    "longitude": -111.977772
  },
  {
    "name": "Childress Muni",
    "code": "CDS",
    "latitude": 34.433781,
    "longitude": -100.287992
  },
  {
    "name": "Keesler Afb",
    "code": "BIX",
    "latitude": 30.410425,
    "longitude": -88.924433
  },
  {
    "name": "Lawson Aaf",
    "code": "LSF",
    "latitude": 32.337322,
    "longitude": -84.991283
  },
  {
    "name": "Kingsville Nas",
    "code": "NQI",
    "latitude": 27.507223,
    "longitude": -97.809723
  },
  {
    "name": "Marshall Aaf",
    "code": "FRI",
    "latitude": 39.055275,
    "longitude": -96.764453
  },
  {
    "name": "Harrisburg Intl",
    "code": "MDT",
    "latitude": 40.193494,
    "longitude": -76.763403
  },
  {
    "name": "Lincoln",
    "code": "LNK",
    "latitude": 40.850971,
    "longitude": -96.75925
  },
  {
    "name": "Capital City",
    "code": "LAN",
    "latitude": 42.7787,
    "longitude": -84.587357
  },
  {
    "name": "Waimea Kohala",
    "code": "MUE",
    "latitude": 20.001328,
    "longitude": -155.668108
  },
  {
    "name": "Massena Intl Richards Fld",
    "code": "MSS",
    "latitude": 44.935833,
    "longitude": -74.845547
  },
  {
    "name": "Hickory Rgnl",
    "code": "HKY",
    "latitude": 35.741147,
    "longitude": -81.38955
  },
  {
    "name": "Albert Whitted",
    "code": "SPG",
    "latitude": 27.765111,
    "longitude": -82.626972
  },
  {
    "name": "Page Fld",
    "code": "FMY",
    "latitude": 26.586611,
    "longitude": -81.86325
  },
  {
    "name": "George Bush Intercontinental",
    "code": "IAH",
    "latitude": 29.984433,
    "longitude": -95.341442
  },
  {
    "name": "Millinocket Muni",
    "code": "MLT",
    "latitude": 45.647836,
    "longitude": -68.685561
  },
  {
    "name": "Andrews Afb",
    "code": "ADW",
    "latitude": 38.810806,
    "longitude": -76.867028
  },
  {
    "name": "Smith Reynolds",
    "code": "INT",
    "latitude": 36.133722,
    "longitude": -80.222
  },
  {
    "name": "Southern California Logistics",
    "code": "VCV",
    "latitude": 34.597453,
    "longitude": -117.382997
  },
  {
    "name": "Bob Sikes",
    "code": "CEW",
    "latitude": 30.778833,
    "longitude": -86.522111
  },
  {
    "name": "Wheeler Sack Aaf",
    "code": "GTB",
    "latitude": 44.055619,
    "longitude": -75.719458
  },
  {
    "name": "St Clair Co Intl",
    "code": "PHN",
    "latitude": 42.910957,
    "longitude": -82.528862
  },
  {
    "name": "Meadows Fld",
    "code": "BFL",
    "latitude": 35.433598,
    "longitude": -119.05677
  },
  {
    "name": "El Paso Intl",
    "code": "ELP",
    "latitude": 31.80725,
    "longitude": -106.377583
  },
  {
    "name": "Valley Intl",
    "code": "HRL",
    "latitude": 26.2285,
    "longitude": -97.654389
  },
  {
    "name": "Columbia Metropolitan",
    "code": "CAE",
    "latitude": 33.938833,
    "longitude": -81.119528
  },
  {
    "name": "Davis Monthan Afb",
    "code": "DMA",
    "latitude": 32.166467,
    "longitude": -110.883144
  },
  {
    "name": "Pensacola Nas",
    "code": "NPA",
    "latitude": 30.352656,
    "longitude": -87.318647
  },
  {
    "name": "Pensacola Rgnl",
    "code": "PNS",
    "latitude": 30.473425,
    "longitude": -87.186611
  },
  {
    "name": "Grand Forks Afb",
    "code": "RDR",
    "latitude": 47.961098,
    "longitude": -97.401194
  },
  {
    "name": "William P Hobby",
    "code": "HOU",
    "latitude": 29.645419,
    "longitude": -95.278889
  },
  {
    "name": "Buckley Afb",
    "code": "BKF",
    "latitude": 39.701668,
    "longitude": -104.75166
  },
  {
    "name": "Northway",
    "code": "ORT",
    "latitude": 62.961334,
    "longitude": -141.929136
  },
  {
    "name": "Palmer Muni",
    "code": "PAQ",
    "latitude": 61.594914,
    "longitude": -149.088711
  },
  {
    "name": "Pittsburgh Intl",
    "code": "PIT",
    "latitude": 40.491467,
    "longitude": -80.232872
  },
  {
    "name": "Wiley Post Will Rogers Mem",
    "code": "BRW",
    "latitude": 71.285446,
    "longitude": -156.766003
  },
  {
    "name": "Ellington Fld",
    "code": "EFD",
    "latitude": 29.607333,
    "longitude": -95.15875
  },
  {
    "name": "Whidbey Island Nas",
    "code": "NUW",
    "latitude": 48.351803,
    "longitude": -122.655906
  },
  {
    "name": "Alice Intl",
    "code": "ALI",
    "latitude": 27.740889,
    "longitude": -98.026944
  },
  {
    "name": "Moody Afb",
    "code": "VAD",
    "latitude": 30.967833,
    "longitude": -83.193
  },
  {
    "name": "Miami Intl",
    "code": "MIA",
    "latitude": 25.79325,
    "longitude": -80.290556
  },
  {
    "name": "Seattle Tacoma Intl",
    "code": "SEA",
    "latitude": 47.449,
    "longitude": -122.309306
  },
  {
    "name": "Lovell Fld",
    "code": "CHA",
    "latitude": 35.035278,
    "longitude": -85.203808
  },
  {
    "name": "Igor I Sikorsky Mem",
    "code": "BDR",
    "latitude": 41.163472,
    "longitude": -73.126167
  },
  {
    "name": "Jackson Evers Intl",
    "code": "JAN",
    "latitude": 32.311167,
    "longitude": -90.075889
  },
  {
    "name": "Scholes Intl At Galveston",
    "code": "GLS",
    "latitude": 29.265322,
    "longitude": -94.860406
  },
  {
    "name": "Long Beach",
    "code": "LGB",
    "latitude": 33.817722,
    "longitude": -118.151611
  },
  {
    "name": "Dillingham",
    "code": "HDH",
    "latitude": 21.579475,
    "longitude": -158.197281
  },
  {
    "name": "Williamsport Rgnl",
    "code": "IPT",
    "latitude": 41.241836,
    "longitude": -76.921094
  },
  {
    "name": "Indianapolis Intl",
    "code": "IND",
    "latitude": 39.717331,
    "longitude": -86.294383
  },
  {
    "name": "Whiteman Afb",
    "code": "SZL",
    "latitude": 38.730306,
    "longitude": -93.547864
  },
  {
    "name": "Akron Fulton Intl",
    "code": "AKC",
    "latitude": 41.0375,
    "longitude": -81.466917
  },
  {
    "name": "Greenwood Leflore",
    "code": "GWO",
    "latitude": 33.494328,
    "longitude": -90.084706
  },
  {
    "name": "Westchester Co",
    "code": "HPN",
    "latitude": 41.066959,
    "longitude": -73.707575
  },
  {
    "name": "Francis S Gabreski",
    "code": "FOK",
    "latitude": 40.843656,
    "longitude": -72.631789
  },
  {
    "name": "Jonesboro Muni",
    "code": "JBR",
    "latitude": 35.831708,
    "longitude": -90.646417
  },
  {
    "name": "Tonopah Test Range",
    "code": "TNX",
    "latitude": 37.798836,
    "longitude": -116.78075
  },
  {
    "name": "Palm Beach Co Park",
    "code": "LNA",
    "latitude": 26.593,
    "longitude": -80.085056
  },
  {
    "name": "North Island Nas",
    "code": "NZY",
    "latitude": 32.699219,
    "longitude": -117.21531
  },
  {
    "name": "Biggs Aaf",
    "code": "BIF",
    "latitude": 31.849528,
    "longitude": -106.380039
  },
  {
    "name": "Yuma Mcas Yuma Intl",
    "code": "YUM",
    "latitude": 32.656578,
    "longitude": -114.60598
  },
  {
    "name": "Cavern City Air Terminal",
    "code": "CNM",
    "latitude": 32.337472,
    "longitude": -104.263278
  },
  {
    "name": "Duluth Intl",
    "code": "DLH",
    "latitude": 46.842091,
    "longitude": -92.193649
  },
  {
    "name": "Bethel",
    "code": "BET",
    "latitude": 60.779778,
    "longitude": -161.838
  },
  {
    "name": "Bowman Fld",
    "code": "LOU",
    "latitude": 38.228,
    "longitude": -85.663722
  },
  {
    "name": "Sierra Vista Muni Libby Aaf",
    "code": "FHU",
    "latitude": 31.588472,
    "longitude": -110.344389
  },
  {
    "name": "Lihue",
    "code": "LIH",
    "latitude": 21.975983,
    "longitude": -159.338958
  },
  {
    "name": "Terre Haute Intl Hulman Fld",
    "code": "HUF",
    "latitude": 39.451464,
    "longitude": -87.307561
  },
  {
    "name": "Havre City Co",
    "code": "HVR",
    "latitude": 48.542983,
    "longitude": -109.762342
  },
  {
    "name": "Grant Co Intl",
    "code": "MWH",
    "latitude": 47.207708,
    "longitude": -119.32019
  },
  {
    "name": "Edward F Knapp State",
    "code": "MPV",
    "latitude": 44.203503,
    "longitude": -72.562328
  },
  {
    "name": "San Nicolas Island Nolf",
    "code": "",
    "latitude": 33.239765,
    "longitude": -119.45816
  },
  {
    "name": "Richmond Intl",
    "code": "RIC",
    "latitude": 37.505167,
    "longitude": -77.319667
  },
  {
    "name": "Shreveport Rgnl",
    "code": "SHV",
    "latitude": 32.446629,
    "longitude": -93.8256
  },
  {
    "name": "Merle K Mudhole Smith",
    "code": "CDV",
    "latitude": 60.491778,
    "longitude": -145.477556
  },
  {
    "name": "Norfolk Intl",
    "code": "ORF",
    "latitude": 36.894611,
    "longitude": -76.201222
  },
  {
    "name": "Southeast Texas Rgnl",
    "code": "BPT",
    "latitude": 29.950833,
    "longitude": -94.020694
  },
  {
    "name": "Savannah Hilton Head Intl",
    "code": "SAV",
    "latitude": 32.127583,
    "longitude": -81.202139
  },
  {
    "name": "Hill Afb",
    "code": "HIF",
    "latitude": 41.123939,
    "longitude": -111.973039
  },
  {
    "name": "Nome",
    "code": "OME",
    "latitude": 64.512203,
    "longitude": -165.445247
  },
  {
    "name": "Scappoose Industrial Airpark",
    "code": "SPB",
    "latitude": 45.771028,
    "longitude": -122.861833
  },
  {
    "name": "St Petersburg Clearwater Intl",
    "code": "PIE",
    "latitude": 27.910167,
    "longitude": -82.687389
  },
  {
    "name": "Menominee Marinette Twin Co",
    "code": "MNM",
    "latitude": 45.12665,
    "longitude": -87.638443
  },
  {
    "name": "Lone Star Executive",
    "code": "CXO",
    "latitude": 30.351833,
    "longitude": -95.414467
  },
  {
    "name": "Deadhorse",
    "code": "SCC",
    "latitude": 70.19475,
    "longitude": -148.465167
  },
  {
    "name": "San Antonio Intl",
    "code": "SAT",
    "latitude": 29.533694,
    "longitude": -98.469778
  },
  {
    "name": "Greater Rochester Intl",
    "code": "ROC",
    "latitude": 43.118866,
    "longitude": -77.672389
  },
  {
    "name": "Patrick Afb",
    "code": "COF",
    "latitude": 28.234922,
    "longitude": -80.610125
  },
  {
    "name": "Teterboro",
    "code": "TEB",
    "latitude": 40.850103,
    "longitude": -74.060837
  },
  {
    "name": "Ellsworth Afb",
    "code": "RCA",
    "latitude": 44.145042,
    "longitude": -103.103567
  },
  {
    "name": "Raleigh Durham Intl",
    "code": "RDU",
    "latitude": 35.877639,
    "longitude": -78.787472
  },
  {
    "name": "James M Cox Dayton Intl",
    "code": "DAY",
    "latitude": 39.902375,
    "longitude": -84.219375
  },
  {
    "name": "Kenai Muni",
    "code": "ENA",
    "latitude": 60.573111,
    "longitude": -151.245
  },
  {
    "name": "Mc Alester Rgnl",
    "code": "MLC",
    "latitude": 34.882403,
    "longitude": -95.783463
  },
  {
    "name": "Niagara Falls Intl",
    "code": "IAG",
    "latitude": 43.107333,
    "longitude": -78.946194
  },
  {
    "name": "Coulter Fld",
    "code": "CFD",
    "latitude": 30.715694,
    "longitude": -96.331361
  },
  {
    "name": "Wright Aaf",
    "code": "",
    "latitude": 31.889097,
    "longitude": -81.562333
  },
  {
    "name": "Newport News Williamsburg Intl",
    "code": "PHF",
    "latitude": 37.131894,
    "longitude": -76.492989
  },
  {
    "name": "Esler Rgnl",
    "code": "ESF",
    "latitude": 31.394903,
    "longitude": -92.295772
  },
  {
    "name": "Altus Afb",
    "code": "LTS",
    "latitude": 34.667067,
    "longitude": -99.266681
  },
  {
    "name": "Tucson Intl",
    "code": "TUS",
    "latitude": 32.116083,
    "longitude": -110.941028
  },
  {
    "name": "Minot Afb",
    "code": "MIB",
    "latitude": 48.415572,
    "longitude": -101.357661
  },
  {
    "name": "Beale Afb",
    "code": "BAB",
    "latitude": 39.136089,
    "longitude": -121.436567
  },
  {
    "name": "Greater Kankakee",
    "code": "IKK",
    "latitude": 41.071389,
    "longitude": -87.846278
  },
  {
    "name": "Seymour Johnson Afb",
    "code": "GSB",
    "latitude": 35.339383,
    "longitude": -77.960589
  },
  {
    "name": "Theodore Francis Green State",
    "code": "PVD",
    "latitude": 41.732581,
    "longitude": -71.420383
  },
  {
    "name": "Salisbury Ocean City Wicomico Rgnl",
    "code": "SBY",
    "latitude": 38.340525,
    "longitude": -75.510289
  },
  {
    "name": "Rancho Murieta",
    "code": "RIU",
    "latitude": 38.486778,
    "longitude": -121.102778
  },
  {
    "name": "Bob Hope",
    "code": "BUR",
    "latitude": 34.200667,
    "longitude": -118.358667
  },
  {
    "name": "Detroit Metro Wayne Co",
    "code": "DTW",
    "latitude": 42.212444,
    "longitude": -83.353389
  },
  {
    "name": "Tampa Intl",
    "code": "TPA",
    "latitude": 27.975472,
    "longitude": -82.53325
  },
  {
    "name": "Pembina Muni",
    "code": "PMB",
    "latitude": 48.942501,
    "longitude": -97.240833
  },
  {
    "name": "Polk Aaf",
    "code": "POE",
    "latitude": 31.044833,
    "longitude": -93.191667
  },
  {
    "name": "Eielson Afb",
    "code": "EIL",
    "latitude": 64.665667,
    "longitude": -147.1015
  },
  {
    "name": "Chisholm Hibbing",
    "code": "HIB",
    "latitude": 47.3866,
    "longitude": -92.838994
  },
  {
    "name": "Angelina Co",
    "code": "LFK",
    "latitude": 31.234014,
    "longitude": -94.75
  },
  {
    "name": "Midland Intl",
    "code": "MAF",
    "latitude": 31.942528,
    "longitude": -102.201914
  },
  {
    "name": "Austin Straubel Intl",
    "code": "GRB",
    "latitude": 44.485072,
    "longitude": -88.129589
  },
  {
    "name": "Ardmore Muni",
    "code": "ADM",
    "latitude": 34.300833,
    "longitude": -97.008889
  },
  {
    "name": "Mc Guire Afb",
    "code": "WRI",
    "latitude": 40.015556,
    "longitude": -74.591667
  },
  {
    "name": "Cherry Point Mcas",
    "code": "NKT",
    "latitude": 34.900872,
    "longitude": -76.880733
  },
  {
    "name": "Emanuel Co",
    "code": "SBO",
    "latitude": 32.609139,
    "longitude": -82.369944
  },
  {
    "name": "Augusta Rgnl At Bush Fld",
    "code": "AGS",
    "latitude": 33.369944,
    "longitude": -81.9645
  },
  {
    "name": "Sloulin Fld Intl",
    "code": "ISN",
    "latitude": 48.177939,
    "longitude": -103.642347
  },
  {
    "name": "Adams Fld",
    "code": "LIT",
    "latitude": 34.729444,
    "longitude": -92.224306
  },
  {
    "name": "Stewart Intl",
    "code": "SWF",
    "latitude": 41.504094,
    "longitude": -74.104839
  },
  {
    "name": "Baudette Intl",
    "code": "BDE",
    "latitude": 48.728444,
    "longitude": -94.612222
  },
  {
    "name": "Sacramento Executive",
    "code": "SAC",
    "latitude": 38.512524,
    "longitude": -121.49347
  },
  {
    "name": "Homer",
    "code": "HOM",
    "latitude": 59.645556,
    "longitude": -151.476583
  },
  {
    "name": "Waynesville Rgnl Arpt At Forney Fld",
    "code": "TBN",
    "latitude": 37.741631,
    "longitude": -92.140736
  },
  {
    "name": "Dobbins Arb",
    "code": "MGE",
    "latitude": 33.915382,
    "longitude": -84.516319
  },
  {
    "name": "Fairchild Afb",
    "code": "SKA",
    "latitude": 47.615058,
    "longitude": -117.655772
  },
  {
    "name": "Roscommon Co",
    "code": "HTL",
    "latitude": 44.359806,
    "longitude": -84.671112
  },
  {
    "name": "Tyndall Afb",
    "code": "PAM",
    "latitude": 30.069567,
    "longitude": -85.575417
  },
  {
    "name": "Dallas Fort Worth Intl",
    "code": "DFW",
    "latitude": 32.896828,
    "longitude": -97.037997
  },
  {
    "name": "Melbourne Intl",
    "code": "MLB",
    "latitude": 28.102753,
    "longitude": -80.645258
  },
  {
    "name": "Mc Chord Afb",
    "code": "TCM",
    "latitude": 47.137678,
    "longitude": -122.476475
  },
  {
    "name": "Austin Bergstrom Intl",
    "code": "AUS",
    "latitude": 30.194528,
    "longitude": -97.669889
  },
  {
    "name": "Rickenbacker Intl",
    "code": "LCK",
    "latitude": 39.813786,
    "longitude": -82.927822
  },
  {
    "name": "Sawyer Intl",
    "code": "",
    "latitude": 46.353625,
    "longitude": -87.395353
  },
  {
    "name": "Mc Ghee Tyson",
    "code": "TYS",
    "latitude": 35.810972,
    "longitude": -83.994028
  },
  {
    "name": "Hood Aaf",
    "code": "HLR",
    "latitude": 31.138731,
    "longitude": -97.714469
  },
  {
    "name": "Lambert St Louis Intl",
    "code": "STL",
    "latitude": 38.748697,
    "longitude": -90.370028
  },
  {
    "name": "Millville Muni",
    "code": "MIV",
    "latitude": 39.367806,
    "longitude": -75.072222
  },
  {
    "name": "Sheppard Afb Wichita Falls Muni",
    "code": "SPS",
    "latitude": 33.988797,
    "longitude": -98.491894
  },
  {
    "name": "Cincinnati Muni Lunken Fld",
    "code": "LUK",
    "latitude": 39.103333,
    "longitude": -84.418611
  },
  {
    "name": "Hartsfield Jackson Atlanta Intl",
    "code": "ATL",
    "latitude": 33.636719,
    "longitude": -84.428067
  },
  {
    "name": "Castle",
    "code": "MER",
    "latitude": 37.380481,
    "longitude": -120.568189
  },
  {
    "name": "Mc Clellan Afld",
    "code": "MCC",
    "latitude": 38.667639,
    "longitude": -121.400611
  },
  {
    "name": "Gerald R Ford Intl",
    "code": "GRR",
    "latitude": 42.880833,
    "longitude": -85.522806
  },
  {
    "name": "Winkler Co",
    "code": "INK",
    "latitude": 31.779628,
    "longitude": -103.201361
  },
  {
    "name": "Fresno Yosemite Intl",
    "code": "FAT",
    "latitude": 36.776194,
    "longitude": -119.71814
  },
  {
    "name": "Vero Beach Muni",
    "code": "VRB",
    "latitude": 27.655556,
    "longitude": -80.417944
  },
  {
    "name": "Imperial Co",
    "code": "IPL",
    "latitude": 32.834219,
    "longitude": -115.578744
  },
  {
    "name": "Nashville Intl",
    "code": "BNA",
    "latitude": 36.124472,
    "longitude": -86.678194
  },
  {
    "name": "Laredo Intl",
    "code": "LRD",
    "latitude": 27.54375,
    "longitude": -99.461556
  },
  {
    "name": "Elmendorf Afb",
    "code": "EDF",
    "latitude": 61.250986,
    "longitude": -149.806503
  },
  {
    "name": "Ralph Wien Mem",
    "code": "OTZ",
    "latitude": 66.884678,
    "longitude": -162.59855
  },
  {
    "name": "Altoona Blair Co",
    "code": "AOO",
    "latitude": 40.296372,
    "longitude": -78.320022
  },
  {
    "name": "Dyess Afb",
    "code": "DYS",
    "latitude": 32.420756,
    "longitude": -99.8546
  },
  {
    "name": "South Arkansas Rgnl At Goodwin Fld",
    "code": "ELD",
    "latitude": 33.220972,
    "longitude": -92.813278
  },
  {
    "name": "La Guardia",
    "code": "LGA",
    "latitude": 40.777245,
    "longitude": -73.872608
  },
  {
    "name": "Tallahassee Rgnl",
    "code": "TLH",
    "latitude": 30.396528,
    "longitude": -84.350333
  },
  {
    "name": "Dupage",
    "code": "DPA",
    "latitude": 41.907778,
    "longitude": -88.248611
  },
  {
    "name": "Waco Rgnl",
    "code": "ACT",
    "latitude": 31.611289,
    "longitude": -97.230519
  },
  {
    "name": "Augusta State",
    "code": "AUG",
    "latitude": 44.320647,
    "longitude": -69.797317
  },
  {
    "name": "Hillsboro Muni",
    "code": "INJ",
    "latitude": 32.083486,
    "longitude": -97.097228
  },
  {
    "name": "Jacksonville Nas",
    "code": "NIP",
    "latitude": 30.235834,
    "longitude": -81.680556
  },
  {
    "name": "Mc Kellar Sipes Rgnl",
    "code": "MKL",
    "latitude": 35.599889,
    "longitude": -88.915611
  },
  {
    "name": "Molokai",
    "code": "MKK",
    "latitude": 21.152886,
    "longitude": -157.096256
  },
  {
    "name": "Godman Aaf",
    "code": "FTK",
    "latitude": 37.907058,
    "longitude": -85.972106
  },
  {
    "name": "New River Mcas",
    "code": "",
    "latitude": 34.708417,
    "longitude": -77.439667
  },
  {
    "name": "San Angelo Rgnl Mathis Fld",
    "code": "SJT",
    "latitude": 31.35775,
    "longitude": -100.496306
  },
  {
    "name": "Calexico Intl",
    "code": "CXL",
    "latitude": 32.669502,
    "longitude": -115.51333
  },
  {
    "name": "Chico Muni",
    "code": "CIC",
    "latitude": 39.795383,
    "longitude": -121.858422
  },
  {
    "name": "Burlington Intl",
    "code": "BTV",
    "latitude": 44.471861,
    "longitude": -73.153278
  },
  {
    "name": "Jacksonville Intl",
    "code": "JAX",
    "latitude": 30.494056,
    "longitude": -81.687861
  },
  {
    "name": "Durango La Plata Co",
    "code": "DRO",
    "latitude": 37.151516,
    "longitude": -107.75377
  },
  {
    "name": "Washington Dulles Intl",
    "code": "IAD",
    "latitude": 38.944533,
    "longitude": -77.455811
  },
  {
    "name": "Easterwood Fld",
    "code": "CLL",
    "latitude": 30.588583,
    "longitude": -96.363833
  },
  {
    "name": "Felts Fld",
    "code": "SFF",
    "latitude": 47.682819,
    "longitude": -117.322558
  },
  {
    "name": "General Mitchell Intl",
    "code": "MKE",
    "latitude": 42.947222,
    "longitude": -87.896583
  },
  {
    "name": "Abilene Rgnl",
    "code": "ABI",
    "latitude": 32.411319,
    "longitude": -99.681897
  },
  {
    "name": "Columbia Rgnl",
    "code": "COU",
    "latitude": 38.818094,
    "longitude": -92.219631
  },
  {
    "name": "Portland Intl",
    "code": "PDX",
    "latitude": 45.588722,
    "longitude": -122.5975
  },
  {
    "name": "Dade Collier Training And Transition",
    "code": "TNT",
    "latitude": 25.861806,
    "longitude": -80.897
  },
  {
    "name": "Palm Beach Intl",
    "code": "PBI",
    "latitude": 26.683161,
    "longitude": -80.095589
  },
  {
    "name": "Fort Worth Meacham Intl",
    "code": "FTW",
    "latitude": 32.819778,
    "longitude": -97.362444
  },
  {
    "name": "Ogdensburg Intl",
    "code": "OGS",
    "latitude": 44.681854,
    "longitude": -75.4655
  },
  {
    "name": "Otis Angb",
    "code": "FMH",
    "latitude": 41.658439,
    "longitude": -70.521417
  },
  {
    "name": "Boeing Fld King Co Intl",
    "code": "BFI",
    "latitude": 47.53,
    "longitude": -122.301947
  },
  {
    "name": "Lackland Afb Kelly Fld Annex",
    "code": "SKF",
    "latitude": 29.384228,
    "longitude": -98.581108
  },
  {
    "name": "Honolulu Intl",
    "code": "HNL",
    "latitude": 21.318681,
    "longitude": -157.922428
  },
  {
    "name": "Des Moines Intl",
    "code": "DSM",
    "latitude": 41.533972,
    "longitude": -93.663083
  },
  {
    "name": "Craven Co Rgnl",
    "code": "EWN",
    "latitude": 35.072972,
    "longitude": -77.042944
  },
  {
    "name": "San Diego Intl",
    "code": "SAN",
    "latitude": 32.733556,
    "longitude": -117.189667
  },
  {
    "name": "Monroe Rgnl",
    "code": "MLU",
    "latitude": 32.510864,
    "longitude": -92.037689
  },
  {
    "name": "Shaw Afb",
    "code": "SSC",
    "latitude": 33.972719,
    "longitude": -80.470564
  },
  {
    "name": "Ontario Intl",
    "code": "ONT",
    "latitude": 34.056,
    "longitude": -117.601194
  },
  {
    "name": "Majors",
    "code": "GVT",
    "latitude": 33.067839,
    "longitude": -96.065333
  },
  {
    "name": "Roswell Intl Air Center",
    "code": "ROW",
    "latitude": 33.301556,
    "longitude": -104.530556
  },
  {
    "name": "Coleman A Young Muni",
    "code": "DET",
    "latitude": 42.409195,
    "longitude": -83.009861
  },
  {
    "name": "Brownsville South Padre Island Intl",
    "code": "BRO",
    "latitude": 25.906833,
    "longitude": -97.425861
  },
  {
    "name": "Dothan Rgnl",
    "code": "DHN",
    "latitude": 31.321339,
    "longitude": -85.449628
  },
  {
    "name": "Cape May Co",
    "code": "WWD",
    "latitude": 39.008507,
    "longitude": -74.908275
  },
  {
    "name": "Fallon Nas",
    "code": "NFL",
    "latitude": 39.416584,
    "longitude": -118.70098
  },
  {
    "name": "Selfridge Angb",
    "code": "MTC",
    "latitude": 42.608333,
    "longitude": -82.8355
  },
  {
    "name": "Four Corners Rgnl",
    "code": "FMN",
    "latitude": 36.74125,
    "longitude": -108.229944
  },
  {
    "name": "Corpus Christi Intl",
    "code": "CRP",
    "latitude": 27.770361,
    "longitude": -97.501222
  },
  {
    "name": "Syracuse Hancock Intl",
    "code": "SYR",
    "latitude": 43.111187,
    "longitude": -76.106311
  },
  {
    "name": "Key West Nas",
    "code": "NQX",
    "latitude": 24.575834,
    "longitude": -81.688889
  },
  {
    "name": "Chicago Midway Intl",
    "code": "MDW",
    "latitude": 41.785972,
    "longitude": -87.752417
  },
  {
    "name": "Norman Y Mineta San Jose Intl",
    "code": "SJC",
    "latitude": 37.3626,
    "longitude": -121.929022
  },
  {
    "name": "Lea Co Rgnl",
    "code": "HOB",
    "latitude": 32.687528,
    "longitude": -103.217028
  },
  {
    "name": "Northeast Philadelphia",
    "code": "PNE",
    "latitude": 40.081944,
    "longitude": -75.010586
  },
  {
    "name": "Denver Intl",
    "code": "DEN",
    "latitude": 39.861656,
    "longitude": -104.673178
  },
  {
    "name": "Philadelphia Intl",
    "code": "PHL",
    "latitude": 39.871944,
    "longitude": -75.241139
  },
  {
    "name": "Sioux Gateway Col Bud Day Fld",
    "code": "SUX",
    "latitude": 42.402603,
    "longitude": -96.384367
  },
  {
    "name": "Middle Georgia Rgnl",
    "code": "MCN",
    "latitude": 32.69285,
    "longitude": -83.649211
  },
  {
    "name": "Truth Or Consequences Muni",
    "code": "TCS",
    "latitude": 33.236944,
    "longitude": -107.27175
  },
  {
    "name": "Palmdale Rgnl Usaf Plt 42",
    "code": "PMD",
    "latitude": 34.629391,
    "longitude": -118.08456
  },
  {
    "name": "Randolph Afb",
    "code": "RND",
    "latitude": 29.529675,
    "longitude": -98.2789
  },
  {
    "name": "El Centro Naf",
    "code": "NJK",
    "latitude": 32.829222,
    "longitude": -115.671667
  },
  {
    "name": "Port Columbus Intl",
    "code": "CMH",
    "latitude": 39.997972,
    "longitude": -82.891889
  },
  {
    "name": "Drake Fld",
    "code": "FYV",
    "latitude": 36.005094,
    "longitude": -94.170059
  },
  {
    "name": "Henry Post Aaf",
    "code": "FSI",
    "latitude": 34.649833,
    "longitude": -98.402167
  },
  {
    "name": "Princeton Muni",
    "code": "PNM",
    "latitude": 45.559868,
    "longitude": -93.608217
  },
  {
    "name": "Wright Patterson Afb",
    "code": "FFO",
    "latitude": 39.826111,
    "longitude": -84.048332
  },
  {
    "name": "Edward G Pitka Sr",
    "code": "GAL",
    "latitude": 64.736178,
    "longitude": -156.937417
  },
  {
    "name": "Chandler Muni",
    "code": "",
    "latitude": 33.269111,
    "longitude": -111.811111
  },
  {
    "name": "Mineral Wells",
    "code": "MWL",
    "latitude": 32.781606,
    "longitude": -98.060175
  },
  {
    "name": "Mc Connell Afb",
    "code": "IAB",
    "latitude": 37.621853,
    "longitude": -97.268192
  },
  {
    "name": "New Orleans Nas Jrb",
    "code": "NBG",
    "latitude": 29.825333,
    "longitude": -90.035
  },
  {
    "name": "Beaufort",
    "code": "BFT",
    "latitude": 32.477411,
    "longitude": -80.723161
  },
  {
    "name": "Texarkana Rgnl Webb Fld",
    "code": "TXK",
    "latitude": 33.453722,
    "longitude": -93.991028
  },
  {
    "name": "Plattsburgh Intl",
    "code": "PBG",
    "latitude": 44.650944,
    "longitude": -73.468139
  },
  {
    "name": "Phillips Aaf",
    "code": "APG",
    "latitude": 39.466219,
    "longitude": -76.168808
  },
  {
    "name": "Tucumcari Muni",
    "code": "TCC",
    "latitude": 35.182777,
    "longitude": -103.603186
  },
  {
    "name": "Ted Stevens Anchorage Intl",
    "code": "ANC",
    "latitude": 61.174361,
    "longitude": -149.996361
  },
  {
    "name": "Robert Gray Aaf",
    "code": "GRK",
    "latitude": 31.06725,
    "longitude": -97.828917
  },
  {
    "name": "Black Rock",
    "code": "ZUN",
    "latitude": 35.083228,
    "longitude": -108.791778
  },
  {
    "name": "Bellingham Intl",
    "code": "BLI",
    "latitude": 48.792694,
    "longitude": -122.537528
  },
  {
    "name": "Millington Rgnl Jetport",
    "code": "NQA",
    "latitude": 35.356667,
    "longitude": -89.870278
  },
  {
    "name": "Elkins Randolph Co Jennings Randolph",
    "code": "EKN",
    "latitude": 38.889444,
    "longitude": -79.857139
  },
  {
    "name": "Hartford Brainard",
    "code": "HFD",
    "latitude": 41.736722,
    "longitude": -72.649444
  },
  {
    "name": "North Central State",
    "code": "SFZ",
    "latitude": 41.920764,
    "longitude": -71.491381
  },
  {
    "name": "Mobile Rgnl",
    "code": "MOB",
    "latitude": 30.691231,
    "longitude": -88.242814
  },
  {
    "name": "Moffett Federal Afld",
    "code": "NUQ",
    "latitude": 37.416142,
    "longitude": -122.049139
  },
  {
    "name": "Santa Fe Muni",
    "code": "SAF",
    "latitude": 35.617108,
    "longitude": -106.089422
  },
  {
    "name": "Barking Sands Pmrf",
    "code": "BKH",
    "latitude": 22.022833,
    "longitude": -159.785
  },
  {
    "name": "Beauregard Rgnl",
    "code": "DRI",
    "latitude": 30.831722,
    "longitude": -93.339917
  },
  {
    "name": "Bradshaw Aaf",
    "code": "BSF",
    "latitude": 19.760056,
    "longitude": -155.553717
  },
  {
    "name": "Nogales Intl",
    "code": "OLS",
    "latitude": 31.417722,
    "longitude": -110.84789
  },
  {
    "name": "Macdill Afb",
    "code": "MCF",
    "latitude": 27.849339,
    "longitude": -82.521214
  },
  {
    "name": "Scott Afb Midamerica",
    "code": "BLV",
    "latitude": 38.545178,
    "longitude": -89.835183
  },
  {
    "name": "Opa Locka",
    "code": "OPF",
    "latitude": 25.907,
    "longitude": -80.278389
  },
  {
    "name": "Del Rio Intl",
    "code": "DRT",
    "latitude": 29.374208,
    "longitude": -100.927158
  },
  {
    "name": "Southwest Florida Intl",
    "code": "RSW",
    "latitude": 26.536167,
    "longitude": -81.755167
  },
  {
    "name": "King Salmon",
    "code": "AKN",
    "latitude": 58.676778,
    "longitude": -156.649278
  },
  {
    "name": "Muir Aaf",
    "code": "MUI",
    "latitude": 40.434811,
    "longitude": -76.569411
  },
  {
    "name": "Kapalua",
    "code": "JHM",
    "latitude": 20.962936,
    "longitude": -156.673031
  },
  {
    "name": "John F Kennedy Intl",
    "code": "JFK",
    "latitude": 40.639751,
    "longitude": -73.778925
  },
  {
    "name": "Homestead Arb",
    "code": "HST",
    "latitude": 25.48855,
    "longitude": -80.383567
  },
  {
    "name": "Riverside Muni",
    "code": "RAL",
    "latitude": 33.951875,
    "longitude": -117.445103
  },
  {
    "name": "Sherman Aaf",
    "code": "FLV",
    "latitude": 39.368332,
    "longitude": -94.914686
  },
  {
    "name": "Wallops Flight Facility",
    "code": "WAL",
    "latitude": 37.940194,
    "longitude": -75.466389
  },
  {
    "name": "Holloman Afb",
    "code": "HMN",
    "latitude": 32.852519,
    "longitude": -106.106525
  },
  {
    "name": "Willow Grove Nas Jrb",
    "code": "NXX",
    "latitude": 40.199833,
    "longitude": -75.148167
  },
  {
    "name": "Cheyenne Rgnl Jerry Olson Fld",
    "code": "CYS",
    "latitude": 41.155722,
    "longitude": -104.811839
  },
  {
    "name": "Stockton Metropolitan",
    "code": "SCK",
    "latitude": 37.894167,
    "longitude": -121.238306
  },
  {
    "name": "Charleston Afb Intl",
    "code": "CHS",
    "latitude": 32.898647,
    "longitude": -80.040528
  },
  {
    "name": "Reno Tahoe Intl",
    "code": "RNO",
    "latitude": 39.499108,
    "longitude": -119.768108
  },
  {
    "name": "Ketchikan Intl",
    "code": "KTN",
    "latitude": 55.355556,
    "longitude": -131.71375
  },
  {
    "name": "Willow Run",
    "code": "YIP",
    "latitude": 42.237928,
    "longitude": -83.530408
  },
  {
    "name": "Vandenberg Afb",
    "code": "VBG",
    "latitude": 34.737333,
    "longitude": -120.584306
  },
  {
    "name": "Birmingham Intl",
    "code": "BHM",
    "latitude": 33.562942,
    "longitude": -86.75355
  },
  {
    "name": "Lakehurst Naes",
    "code": "NEL",
    "latitude": 40.033333,
    "longitude": -74.353333
  },
  {
    "name": "Eareckson As",
    "code": "SYA",
    "latitude": 52.712275,
    "longitude": 174.11362
  },
  {
    "name": "Nellis Afb",
    "code": "LSV",
    "latitude": 36.236197,
    "longitude": -115.034253
  },
  {
    "name": "March Arb",
    "code": "RIV",
    "latitude": 33.880711,
    "longitude": -117.259453
  },
  {
    "name": "Modesto City Co Harry Sham",
    "code": "MOD",
    "latitude": 37.625817,
    "longitude": -120.954422
  },
  {
    "name": "Sacramento Intl",
    "code": "SMF",
    "latitude": 38.695417,
    "longitude": -121.590778
  },
  {
    "name": "Waukegan Rgnl",
    "code": "UGN",
    "latitude": 42.422161,
    "longitude": -87.867908
  },
  {
    "name": "City Of Colorado Springs Muni",
    "code": "COS",
    "latitude": 38.805805,
    "longitude": -104.700778
  },
  {
    "name": "Buffalo Niagara Intl",
    "code": "BUF",
    "latitude": 42.940525,
    "longitude": -78.732167
  },
  {
    "name": "Griffing Sandusky",
    "code": "SKY",
    "latitude": 41.433361,
    "longitude": -82.652333
  },
  {
    "name": "Snohomish Co",
    "code": "PAE",
    "latitude": 47.906342,
    "longitude": -122.281564
  },
  {
    "name": "Mountain Home Afb",
    "code": "MUO",
    "latitude": 43.043603,
    "longitude": -115.872431
  },
  {
    "name": "Cedar City Rgnl",
    "code": "CDC",
    "latitude": 37.700967,
    "longitude": -113.098847
  },
  {
    "name": "Bradley Intl",
    "code": "BDL",
    "latitude": 41.938889,
    "longitude": -72.683222
  },
  {
    "name": "Mc Allen Miller Intl",
    "code": "MFE",
    "latitude": 26.175833,
    "longitude": -98.238611
  },
  {
    "name": "Norfolk Ns",
    "code": "NGU",
    "latitude": 36.937644,
    "longitude": -76.289289
  },
  {
    "name": "Westover Arb Metropolitan",
    "code": "CEF",
    "latitude": 42.194014,
    "longitude": -72.534783
  },
  {
    "name": "Lubbock Preston Smith Intl",
    "code": "LBB",
    "latitude": 33.663639,
    "longitude": -101.822778
  },
  {
    "name": "Chicago Ohare Intl",
    "code": "ORD",
    "latitude": 41.978603,
    "longitude": -87.904842
  },
  {
    "name": "Boca Raton",
    "code": "BCT",
    "latitude": 26.3785,
    "longitude": -80.107694
  },
  {
    "name": "Fairbanks Intl",
    "code": "FAI",
    "latitude": 64.815114,
    "longitude": -147.856267
  },
  {
    "name": "Quantico Mcaf",
    "code": "NYG",
    "latitude": 38.501683,
    "longitude": -77.305333
  },
  {
    "name": "Cannon Afb",
    "code": "CVS",
    "latitude": 34.382775,
    "longitude": -103.322147
  },
  {
    "name": "Kaneohe Bay Mcaf",
    "code": "NGF",
    "latitude": 21.450453,
    "longitude": -157.768
  },
  {
    "name": "Offutt Afb",
    "code": "OFF",
    "latitude": 41.118332,
    "longitude": -95.912511
  },
  {
    "name": "Gulkana",
    "code": "GKN",
    "latitude": 62.154888,
    "longitude": -145.456639
  },
  {
    "name": "Watertown Intl",
    "code": "ART",
    "latitude": 43.991922,
    "longitude": -76.021739
  },
  {
    "name": "Palm Springs Intl",
    "code": "PSP",
    "latitude": 33.829667,
    "longitude": -116.506694
  },
  {
    "name": "Rick Husband Amarillo Intl",
    "code": "AMA",
    "latitude": 35.219369,
    "longitude": -101.705931
  },
  {
    "name": "Fort Dodge Rgnl",
    "code": "FOD",
    "latitude": 42.5512,
    "longitude": -94.191842
  },
  {
    "name": "Barksdale Afb",
    "code": "BAD",
    "latitude": 32.50182,
    "longitude": -93.662674
  },
  {
    "name": "Forbes Fld",
    "code": "FOE",
    "latitude": 38.950944,
    "longitude": -95.663611
  },
  {
    "name": "Cotulla Lasalle Co",
    "code": "COT",
    "latitude": 28.456694,
    "longitude": -99.220294
  },
  {
    "name": "Wilmington Intl",
    "code": "ILM",
    "latitude": 34.270615,
    "longitude": -77.902569
  },
  {
    "name": "Baton Rouge Metro Ryan Fld",
    "code": "BTR",
    "latitude": 30.533167,
    "longitude": -91.149639
  },
  {
    "name": "Meridian Nas",
    "code": "NMM",
    "latitude": 32.552083,
    "longitude": -88.555557
  },
  {
    "name": "Tyler Pounds Rgnl",
    "code": "TYR",
    "latitude": 32.354139,
    "longitude": -95.402386
  },
  {
    "name": "Baltimore Washington Intl",
    "code": "BWI",
    "latitude": 39.175361,
    "longitude": -76.668333
  },
  {
    "name": "Hobart Muni",
    "code": "HBR",
    "latitude": 34.991308,
    "longitude": -99.051353
  },
  {
    "name": "Lanai",
    "code": "LNY",
    "latitude": 20.785611,
    "longitude": -156.951419
  },
  {
    "name": "Alexandria Intl",
    "code": "AEX",
    "latitude": 31.3274,
    "longitude": -92.549833
  },
  {
    "name": "Condron Aaf",
    "code": "WSD",
    "latitude": 32.341484,
    "longitude": -106.40277
  },
  {
    "name": "Cold Bay",
    "code": "CDB",
    "latitude": 55.206061,
    "longitude": -162.725436
  },
  {
    "name": "Tulsa Intl",
    "code": "TUL",
    "latitude": 36.198389,
    "longitude": -95.888111
  },
  {
    "name": "Sitka Rocky Gutierrez",
    "code": "SIT",
    "latitude": 57.047138,
    "longitude": -135.361611
  },
  {
    "name": "Long Island Mac Arthur",
    "code": "ISP",
    "latitude": 40.79525,
    "longitude": -73.100222
  },
  {
    "name": "Minneapolis St Paul Intl",
    "code": "MSP",
    "latitude": 44.881956,
    "longitude": -93.221767
  },
  {
    "name": "New Castle",
    "code": "ILG",
    "latitude": 39.678722,
    "longitude": -75.606528
  },
  {
    "name": "Unalaska",
    "code": "DUT",
    "latitude": 53.900139,
    "longitude": -166.5435
  },
  {
    "name": "Louis Armstrong New Orleans Intl",
    "code": "MSY",
    "latitude": 29.993389,
    "longitude": -90.258028
  },
  {
    "name": "Portland Intl Jetport",
    "code": "PWM",
    "latitude": 43.646161,
    "longitude": -70.309281
  },
  {
    "name": "Will Rogers World",
    "code": "OKC",
    "latitude": 35.393089,
    "longitude": -97.600733
  },
  {
    "name": "Albany Intl",
    "code": "ALB",
    "latitude": 42.748267,
    "longitude": -73.801692
  },
  {
    "name": "Valdez Pioneer Fld",
    "code": "VDZ",
    "latitude": 61.133949,
    "longitude": -146.248342
  },
  {
    "name": "Langley Afb",
    "code": "LFI",
    "latitude": 37.082881,
    "longitude": -76.360547
  },
  {
    "name": "John Wayne Arpt Orange Co",
    "code": "SNA",
    "latitude": 33.675667,
    "longitude": -117.868222
  },
  {
    "name": "Columbus Afb",
    "code": "CBM",
    "latitude": 33.643833,
    "longitude": -88.443833
  },
  {
    "name": "Kendall Tamiami Executive",
    "code": "TMB",
    "latitude": 25.647889,
    "longitude": -80.432777
  },
  {
    "name": "Oceana Nas",
    "code": "NTU",
    "latitude": 36.820703,
    "longitude": -76.033542
  },
  {
    "name": "Grissom Arb",
    "code": "GUS",
    "latitude": 40.648094,
    "longitude": -86.152119
  },
  {
    "name": "Natrona Co Intl",
    "code": "CPR",
    "latitude": 42.908,
    "longitude": -106.464417
  },
  {
    "name": "Eglin Afb",
    "code": "VPS",
    "latitude": 30.48325,
    "longitude": -86.5254
  },
  {
    "name": "Craig Fld",
    "code": "SEM",
    "latitude": 32.343947,
    "longitude": -86.987803
  },
  {
    "name": "Key West Intl",
    "code": "EYW",
    "latitude": 24.556111,
    "longitude": -81.759556
  },
  {
    "name": "Charlotte Douglas Intl",
    "code": "CLT",
    "latitude": 35.214,
    "longitude": -80.943139
  },
  {
    "name": "Mc Carran Intl",
    "code": "LAS",
    "latitude": 36.080056,
    "longitude": -115.15225
  },
  {
    "name": "Orlando Intl",
    "code": "MCO",
    "latitude": 28.429394,
    "longitude": -81.308994
  },
  {
    "name": "Florence Rgnl",
    "code": "FLO",
    "latitude": 34.185361,
    "longitude": -79.723889
  },
  {
    "name": "Great Falls Intl",
    "code": "GTF",
    "latitude": 47.482,
    "longitude": -111.370689
  },
  {
    "name": "Youngstown Warren Rgnl",
    "code": "YNG",
    "latitude": 41.260736,
    "longitude": -80.679097
  },
  {
    "name": "Ladd Aaf",
    "code": "FBK",
    "latitude": 64.8375,
    "longitude": -147.614444
  },
  {
    "name": "Mc Minnville Muni",
    "code": "MMV",
    "latitude": 45.194444,
    "longitude": -123.135944
  },
  {
    "name": "Robins Afb",
    "code": "WRB",
    "latitude": 32.640144,
    "longitude": -83.59185
  },
  {
    "name": "Pullman-Moscow Rgnl",
    "code": "PUW",
    "latitude": 46.743861,
    "longitude": -117.109583
  },
  {
    "name": "Lewiston Nez Perce Co",
    "code": "LWS",
    "latitude": 46.3745,
    "longitude": -117.015389
  },
  {
    "name": "Elmira Corning Rgnl",
    "code": "ELM",
    "latitude": 42.159889,
    "longitude": -76.891611
  },
  {
    "name": "Ithaca Tompkins Rgnl",
    "code": "ITH",
    "latitude": 42.491028,
    "longitude": -76.458444
  },
  {
    "name": "Monterey Peninsula",
    "code": "MRY",
    "latitude": 36.587,
    "longitude": -121.842944
  },
  {
    "name": "Santa Barbara Muni",
    "code": "SBA",
    "latitude": 34.426211,
    "longitude": -119.840372
  },
  {
    "name": "Daytona Beach Intl",
    "code": "DAB",
    "latitude": 29.179917,
    "longitude": -81.058056
  },
  {
    "name": "Wall Street Heliport",
    "code": "JRB",
    "latitude": 40.701214,
    "longitude": -74.009028
  },
  {
    "name": "Talkeetna",
    "code": "TKA",
    "latitude": 62.3205,
    "longitude": -150.093694
  },
  {
    "name": "Tweed-New Haven Airport",
    "code": "HVN",
    "latitude": 41.26375,
    "longitude": -72.886806
  },
  {
    "name": "Asheville Regional Airport",
    "code": "AVL",
    "latitude": 35.436194,
    "longitude": -82.541806
  },
  {
    "name": "Piedmont Triad",
    "code": "GSO",
    "latitude": 36.09775,
    "longitude": -79.937306
  },
  {
    "name": "Sioux Falls",
    "code": "FSD",
    "latitude": 43.582014,
    "longitude": -96.741914
  },
  {
    "name": "Manchester Regional Airport",
    "code": "MHT",
    "latitude": 42.932556,
    "longitude": -71.435667
  },
  {
    "name": "Naples Muni",
    "code": "APF",
    "latitude": 26.152619,
    "longitude": -81.775294
  },
  {
    "name": "Louisville International Airport",
    "code": "SDF",
    "latitude": 38.1740858,
    "longitude": -85.7364989
  },
  {
    "name": "Charlottesville-Albemarle",
    "code": "CHO",
    "latitude": 38.138639,
    "longitude": -78.452861
  },
  {
    "name": "Roanoke Regional",
    "code": "ROA",
    "latitude": 37.325472,
    "longitude": -79.975417
  },
  {
    "name": "Blue Grass",
    "code": "LEX",
    "latitude": 38.0365,
    "longitude": -84.605889
  },
  {
    "name": "Evansville Regional",
    "code": "EVV",
    "latitude": 38.036997,
    "longitude": -87.532364
  },
  {
    "name": "Albuquerque International Sunport",
    "code": "ABQ",
    "latitude": 35.0402222,
    "longitude": -106.6091944
  },
  {
    "name": "Gallatin Field",
    "code": "BZN",
    "latitude": 45.777643,
    "longitude": -111.160151
  },
  {
    "name": "Billings Logan International Airport",
    "code": "BIL",
    "latitude": 45.80921,
    "longitude": -108.537654
  },
  {
    "name": "Bert Mooney Airport",
    "code": "BTM",
    "latitude": 45.954806,
    "longitude": -112.497472
  },
  {
    "name": "Cherry Capital Airport",
    "code": "TVC",
    "latitude": 44.741445,
    "longitude": -85.582235
  },
  {
    "name": "Hancock County - Bar Harbor",
    "code": "BHB",
    "latitude": 44.4497689,
    "longitude": -68.3615653
  },
  {
    "name": "Knox County Regional Airport",
    "code": "RKD",
    "latitude": 44.0601111,
    "longitude": -69.0992303
  },
  {
    "name": "Jackson Hole Airport",
    "code": "JAC",
    "latitude": 43.607333333,
    "longitude": -110.73775
  },
  {
    "name": "Chicago Rockford International Airport ",
    "code": "RFD",
    "latitude": 42.1953611,
    "longitude": -89.0972222
  },
  {
    "name": "East 34th Street Heliport",
    "code": "TSS",
    "latitude": 40.7425,
    "longitude": -73.971944
  },
  {
    "name": "Greenville-Spartanburg International",
    "code": "GSP",
    "latitude": 34.895556,
    "longitude": -82.218889
  },
  {
    "name": "Central Illinois Rgnl",
    "code": "BMI",
    "latitude": 40.477111,
    "longitude": -88.915917
  },
  {
    "name": "Gulfport-Biloxi",
    "code": "GPT",
    "latitude": 30.407278,
    "longitude": -89.070111
  },
  {
    "name": "Kalamazoo",
    "code": "AZO",
    "latitude": 42.234875,
    "longitude": -85.552058
  },
  {
    "name": "Toledo",
    "code": "TOL",
    "latitude": 41.586806,
    "longitude": -83.807833
  },
  {
    "name": "Fort Wayne",
    "code": "FWA",
    "latitude": 40.978472,
    "longitude": -85.195139
  },
  {
    "name": "Decatur",
    "code": "DEC",
    "latitude": 39.834564,
    "longitude": -88.865689
  },
  {
    "name": "Cedar Rapids",
    "code": "CID",
    "latitude": 41.884694,
    "longitude": -91.710806
  },
  {
    "name": "La Crosse Municipal",
    "code": "LSE",
    "latitude": 43.878986,
    "longitude": -91.256711
  },
  {
    "name": "Central Wisconsin",
    "code": "CWA",
    "latitude": 44.772726,
    "longitude": -89.646635
  },
  {
    "name": "Peoria Regional",
    "code": "PIA",
    "latitude": 40.664203,
    "longitude": -89.693258
  },
  {
    "name": "Appleton",
    "code": "ATW",
    "latitude": 44.257526,
    "longitude": -88.507576
  },
  {
    "name": "Rochester",
    "code": "RST",
    "latitude": 43.908283,
    "longitude": -92.500014
  },
  {
    "name": "Champaign",
    "code": "CMI",
    "latitude": 40.03925,
    "longitude": -88.278056
  },
  {
    "name": "Manhattan Reigonal",
    "code": "MHK",
    "latitude": 39.140972,
    "longitude": -96.670833
  },
  {
    "name": "Franklin",
    "code": "FKL",
    "latitude": 41.377874,
    "longitude": -79.860362
  },
  {
    "name": "Grand Junction Regional",
    "code": "GJT",
    "latitude": 39.122413,
    "longitude": -108.526735
  },
  {
    "name": "St George Muni",
    "code": "SGU",
    "latitude": 37.090583,
    "longitude": -113.593056
  },
  {
    "name": "David Wayne Hooks Field",
    "code": "DWH",
    "latitude": 30.063746,
    "longitude": -95.554276
  },
  {
    "name": "Port O\\'Connor Airfield",
    "code": "S46",
    "latitude": 28.429977,
    "longitude": -96.442859
  },
  {
    "name": "Sarasota Bradenton Intl",
    "code": "SRQ",
    "latitude": 27.395444,
    "longitude": -82.554389
  },
  {
    "name": "Van Nuys",
    "code": "VNY",
    "latitude": 34.209811,
    "longitude": -118.489972
  },
  {
    "name": "Arthur Dunn Airpark",
    "code": "X21",
    "latitude": 28.622552,
    "longitude": -80.83541
  },
  {
    "name": "Quad City Intl",
    "code": "MLI",
    "latitude": 41.448528,
    "longitude": -90.507539
  },
  {
    "name": "Panama City Bay Co Intl",
    "code": "PFN",
    "latitude": 30.212083,
    "longitude": -85.682806
  },
  {
    "name": "Orlando",
    "code": "DWS",
    "latitude": 28.398,
    "longitude": -81.57
  },
  {
    "name": "Bismarck Municipal Airport",
    "code": "BIS",
    "latitude": 46.775842,
    "longitude": -100.757931
  },
  {
    "name": "Telluride",
    "code": "TEX",
    "latitude": 37.953759,
    "longitude": -107.90848
  },
  {
    "name": "Rapid City Regional Airport",
    "code": "RAP",
    "latitude": 44.045278,
    "longitude": -103.057222
  },
  {
    "name": "McClellan-Palomar Airport",
    "code": "CLD",
    "latitude": 33.0742,
    "longitude": -117.1648
  },
  {
    "name": "Bishop International",
    "code": "FNT",
    "latitude": 42.965424,
    "longitude": -83.743629
  },
  {
    "name": "Redding Muni",
    "code": "RDD",
    "latitude": 40.509,
    "longitude": -122.293389
  },
  {
    "name": "Mahlon Sweet Fld",
    "code": "EUG",
    "latitude": 44.124583,
    "longitude": -123.211972
  },
  {
    "name": "Idaho Falls Rgnl",
    "code": "IDA",
    "latitude": 43.514556,
    "longitude": -112.07075
  },
  {
    "name": "Rogue Valley Intl Medford",
    "code": "MFR",
    "latitude": 42.374228,
    "longitude": -122.8735
  },
  {
    "name": "Roberts Fld",
    "code": "RDM",
    "latitude": 44.254066,
    "longitude": -121.149964
  },
  {
    "name": "Akron Canton Regional Airport",
    "code": "CAK",
    "latitude": 40.9160833,
    "longitude": -81.4421944
  },
  {
    "name": "Huntsville International Airport-Carl T Jones Field",
    "code": "HSV",
    "latitude": 34.6371944,
    "longitude": -86.7750556
  },
  {
    "name": "Mid-Ohio Valley Regional Airport",
    "code": "PKB",
    "latitude": 39.3451039,
    "longitude": -81.4392031
  },
  {
    "name": "Montgomery Regional Airport ",
    "code": "MGM",
    "latitude": 32.3006389,
    "longitude": -86.3939722
  },
  {
    "name": "Tri-Cities Regional Airport",
    "code": "TRI",
    "latitude": 36.4752222,
    "longitude": -82.4074167
  },
  {
    "name": "Barkley Regional Airport",
    "code": "PAH",
    "latitude": 37.0602875,
    "longitude": -88.7729583
  },
  {
    "name": "Glacier Park Intl",
    "code": "FCA",
    "latitude": 48.310472,
    "longitude": -114.256
  },
  {
    "name": "Page Municipal Airport",
    "code": "PGA",
    "latitude": 36.9261,
    "longitude": -111.4483
  },
  {
    "name": "Mbs Intl",
    "code": "MBS",
    "latitude": 43.532913,
    "longitude": -84.079647
  },
  {
    "name": "Greater Binghamton Edwin A Link Fld",
    "code": "BGM",
    "latitude": 42.208689,
    "longitude": -75.979839
  },
  {
    "name": "Blythe Airport",
    "code": "BLH",
    "latitude": 33.619167,
    "longitude": -114.716889
  },
  {
    "name": "Petersburg James A. Johnson",
    "code": "PSG",
    "latitude": 56.801667,
    "longitude": -132.945278
  },
  {
    "name": "Orlando Sanford Intl",
    "code": "SFB",
    "latitude": 28.777639,
    "longitude": -81.237489
  },
  {
    "name": "John Murtha Johnstown-Cambria County Airport",
    "code": "JST",
    "latitude": 40.316111,
    "longitude": -78.833889
  },
  {
    "name": "Missoula Intl",
    "code": "MSO",
    "latitude": 46.916306,
    "longitude": -114.090556
  },
  {
    "name": "Grand Canyon National Park Airport",
    "code": "GCN",
    "latitude": 35.9523611,
    "longitude": -112.1469722
  },
  {
    "name": "Sugar Land Regional Airport",
    "code": "SGR",
    "latitude": 29.62225,
    "longitude": -95.6565278
  },
  {
    "name": "Centennial",
    "code": "APA",
    "latitude": 39.570129,
    "longitude": -104.849294
  },
  {
    "name": "Clovis Muni",
    "code": "CVN",
    "latitude": 34.425139,
    "longitude": -103.079278
  },
  {
    "name": "Fort Stockton Pecos Co",
    "code": "FST",
    "latitude": 30.915667,
    "longitude": -102.916139
  },
  {
    "name": "Las Vegas Muni",
    "code": "LVS",
    "latitude": 35.654222,
    "longitude": -105.142389
  },
  {
    "name": "West Houston",
    "code": "IWS",
    "latitude": 29.818194,
    "longitude": -95.672611
  },
  {
    "name": "La Junta Muni",
    "code": "LHX",
    "latitude": 38.049719,
    "longitude": -103.509431
  },
  {
    "name": "Las Cruces Intl",
    "code": "LRU",
    "latitude": 32.289417,
    "longitude": -106.921972
  },
  {
    "name": "Stephens Co",
    "code": "BKD",
    "latitude": 32.719047,
    "longitude": -98.891
  },
  {
    "name": "Draughon Miller Central Texas Rgnl",
    "code": "TPL",
    "latitude": 31.1525,
    "longitude": -97.407778
  },
  {
    "name": "Ozona Muni",
    "code": "OZA",
    "latitude": 30.735281,
    "longitude": -101.202972
  },
  {
    "name": "Waikoloa Heliport",
    "code": "WKL",
    "latitude": 19.9136,
    "longitude": -155.864
  },
  {
    "name": "Eagle Co Rgnl",
    "code": "EGE",
    "latitude": 39.642556,
    "longitude": -106.917694
  },
  {
    "name": "Stapleton",
    "code": "",
    "latitude": 39.779255,
    "longitude": -104.88184
  },
  {
    "name": "Cuyahoga County",
    "code": "CGF",
    "latitude": 41.565124,
    "longitude": -81.4863555
  },
  {
    "name": "Mansfield Lahm Regional",
    "code": "MFD",
    "latitude": 40.8214167,
    "longitude": -82.5166389
  },
  {
    "name": "Columbus Metropolitan Airport",
    "code": "CSG",
    "latitude": 32.5163333,
    "longitude": -84.9388611
  },
  {
    "name": "Lawton-Fort Sill Regional Airport",
    "code": "LAW",
    "latitude": 34.5677144,
    "longitude": -98.4166367
  },
  {
    "name": "Fort Collins Loveland Muni",
    "code": "FNL",
    "latitude": 40.451828,
    "longitude": -105.011336
  },
  {
    "name": "Flagstaff Pulliam Airport",
    "code": "FLG",
    "latitude": 35.140318,
    "longitude": -111.6692392
  },
  {
    "name": "Lake Tahoe Airport",
    "code": "TVL",
    "latitude": 38.893889,
    "longitude": -119.995278
  },
  {
    "name": "Magic Valley Regional Airport",
    "code": "TWF",
    "latitude": 42.481803,
    "longitude": -114.487733
  },
  {
    "name": "Martha\\'s Vineyard",
    "code": "MVY",
    "latitude": 41.391667,
    "longitude": -70.615278
  },
  {
    "name": "Newport State",
    "code": "UUU",
    "latitude": 41.533056,
    "longitude": -71.282222
  },
  {
    "name": "Hartness State",
    "code": "VSF",
    "latitude": 43.343333,
    "longitude": -72.517222
  },
  {
    "name": "Concord Municipal",
    "code": "CON",
    "latitude": 43.20267,
    "longitude": -71.50233
  },
  {
    "name": "Sanford Regional",
    "code": "SFM",
    "latitude": 43.39383,
    "longitude": -70.708
  },
  {
    "name": "Groton New London",
    "code": "GON",
    "latitude": 41.330056,
    "longitude": -72.045139
  },
  {
    "name": "Saint Cloud Regional Airport",
    "code": "STC",
    "latitude": 45.546556,
    "longitude": -94.059889
  },
  {
    "name": "Golden Triangle Regional Airport",
    "code": "GTR",
    "latitude": 33.450333,
    "longitude": -88.591361
  },
  {
    "name": "Bowerman Field",
    "code": "HQM",
    "latitude": 46.9711944,
    "longitude": -123.9365556
  },
  {
    "name": "Erie Intl Tom Ridge Fld",
    "code": "ERI",
    "latitude": 42.082022,
    "longitude": -80.176217
  },
  {
    "name": "Barnstable Muni Boardman Polando Fld",
    "code": "HYA",
    "latitude": 41.669336,
    "longitude": -70.280356
  },
  {
    "name": "Sedona",
    "code": "SDX",
    "latitude": 34.848628,
    "longitude": -111.788472
  },
  {
    "name": "Dry Tortugas",
    "code": "",
    "latitude": 24.62,
    "longitude": -82.87
  },
  {
    "name": "Dry Tortugas",
    "code": "",
    "latitude": 24.62,
    "longitude": 24.62
  },
  {
    "name": "Dry Tortugas",
    "code": "",
    "latitude": 24.628,
    "longitude": 82.873
  },
  {
    "name": "Morgantown Muni Walter L Bill Hart Fld",
    "code": "MGW",
    "latitude": 39.642908,
    "longitude": -79.916314
  },
  {
    "name": "Yeager",
    "code": "CRW",
    "latitude": 38.373147,
    "longitude": -81.593189
  },
  {
    "name": "Wilkes Barre Scranton Intl",
    "code": "AVP",
    "latitude": 41.338478,
    "longitude": -75.723403
  },
  {
    "name": "Bemidji Regional Airport",
    "code": "BJI",
    "latitude": 47.510722,
    "longitude": -94.934722
  },
  {
    "name": "Hector International Airport",
    "code": "FAR",
    "latitude": 46.92065,
    "longitude": -96.8157639
  },
  {
    "name": "Downtown",
    "code": "MKC",
    "latitude": 39.1275,
    "longitude": -94.598889
  },
  {
    "name": "Phoenix-Mesa Gateway",
    "code": "AZA",
    "latitude": 33.307833,
    "longitude": -111.655
  },
  {
    "name": "Gillette-Campbell County Airport",
    "code": "GCC",
    "latitude": 44.3489167,
    "longitude": -105.5393611
  },
  {
    "name": "El Toro",
    "code": "NZJ",
    "latitude": 33.676132,
    "longitude": -117.731164
  },
  {
    "name": "Iosco County",
    "code": "ECA",
    "latitude": 44.311,
    "longitude": -83.422
  },
  {
    "name": "University Park Airport",
    "code": "SCE",
    "latitude": 40.849278,
    "longitude": -77.848694
  },
  {
    "name": "Key Field",
    "code": "MEI",
    "latitude": 32.332624,
    "longitude": -88.751868
  },
  {
    "name": "Abraham Lincoln Capital",
    "code": "SPI",
    "latitude": 39.8441,
    "longitude": -89.677889
  },
  {
    "name": "Cortez Muni",
    "code": "CEZ",
    "latitude": 37.303,
    "longitude": -108.628056
  },
  {
    "name": "Yampa Valley",
    "code": "HDN",
    "latitude": 40.481181,
    "longitude": -107.21766
  },
  {
    "name": "Gallup Muni",
    "code": "GUP",
    "latitude": 35.511058,
    "longitude": -108.789308
  },
  {
    "name": "Liberal Muni",
    "code": "LBL",
    "latitude": 37.044222,
    "longitude": -100.95986
  },
  {
    "name": "Lamar Muni",
    "code": "LAA",
    "latitude": 38.069694,
    "longitude": -102.6885
  },
  {
    "name": "Renner Fld",
    "code": "GLD",
    "latitude": 39.370621,
    "longitude": -101.698992
  },
  {
    "name": "Yellowstone Rgnl",
    "code": "COD",
    "latitude": 44.520194,
    "longitude": -109.023806
  },
  {
    "name": "Springfield Branson Natl",
    "code": "SGF",
    "latitude": 37.245667,
    "longitude": -93.388639
  },
  {
    "name": "Joplin Rgnl",
    "code": "JLN",
    "latitude": 37.151814,
    "longitude": -94.498269
  },
  {
    "name": "Lehigh Valley Intl",
    "code": "ABE",
    "latitude": 40.652083,
    "longitude": -75.440806
  },
  {
    "name": "NW Arkansas Regional",
    "code": "XNA",
    "latitude": 36.2818694,
    "longitude": -94.3068111
  },
  {
    "name": "South Bend Rgnl",
    "code": "SBN",
    "latitude": 41.708661,
    "longitude": -86.31725
  },
  {
    "name": "Washington Union Station",
    "code": "ZWU",
    "latitude": 38.89746,
    "longitude": -77.00643
  },
  {
    "name": "Smith Fld",
    "code": "SMD",
    "latitude": 41.143353,
    "longitude": -85.152778
  },
  {
    "name": "Arcata",
    "code": "ACV",
    "latitude": 40.978111,
    "longitude": -124.108611
  },
  {
    "name": "Camp Mabry Austin City",
    "code": "ATT",
    "latitude": 30.31666,
    "longitude": -97.7666
  },
  {
    "name": "Albert J Ellis",
    "code": "OAJ",
    "latitude": 34.829164,
    "longitude": -77.612139
  },
  {
    "name": "Tuscaloosa Rgnl",
    "code": "TCL",
    "latitude": 33.220627,
    "longitude": -87.611403
  },
  {
    "name": "Dubuque Rgnl",
    "code": "DBQ",
    "latitude": 42.402,
    "longitude": -90.709472
  },
  {
    "name": "Kalaupapa Airport",
    "code": "LUP",
    "latitude": 21.211,
    "longitude": -156.974
  },
  {
    "name": "Wrangell Airport",
    "code": "WRG",
    "latitude": 56.4843,
    "longitude": -132.37
  },
  {
    "name": "Chevak Airport",
    "code": "VAK",
    "latitude": 61.5338,
    "longitude": -165.584
  },
  {
    "name": "Aniak Airport",
    "code": "ANI",
    "latitude": 61.5816,
    "longitude": -159.543
  },
  {
    "name": "Mountain Village Airport",
    "code": "MOU",
    "latitude": 62.0954,
    "longitude": -163.682
  },
  {
    "name": "McGrath Airport",
    "code": "MCG",
    "latitude": 62.9529,
    "longitude": -155.606
  },
  {
    "name": "Kalskag Airport",
    "code": "KLG",
    "latitude": 61.5363,
    "longitude": -160.341
  },
  {
    "name": "Haines Airport",
    "code": "HNS",
    "latitude": 59.2438,
    "longitude": -135.524
  },
  {
    "name": "Holy Cross Airport",
    "code": "HCR",
    "latitude": 62.1883,
    "longitude": -159.775
  },
  {
    "name": "Skagway Airport",
    "code": "SGY",
    "latitude": 59.4601,
    "longitude": -135.316
  },
  {
    "name": "Gustavus Airport",
    "code": "GST",
    "latitude": 58.4253,
    "longitude": -135.707
  },
  {
    "name": "Adak Airport",
    "code": "ADK",
    "latitude": 51.878,
    "longitude": -176.646
  },
  {
    "name": "Yakima Air Terminal McAllister Field",
    "code": "YKM",
    "latitude": 46.5682,
    "longitude": -120.544
  },
  {
    "name": "Worland Municipal Airport",
    "code": "WRL",
    "latitude": 43.9657,
    "longitude": -107.951
  },
  {
    "name": "Valdosta Regional Airport",
    "code": "VLD",
    "latitude": 30.7825,
    "longitude": -83.2767
  },
  {
    "name": "Victoria Regional Airport",
    "code": "VCT",
    "latitude": 28.8526,
    "longitude": -96.9185
  },
  {
    "name": "Quincy Regional Baldwin Field",
    "code": "UIN",
    "latitude": 39.9427,
    "longitude": -91.1946
  },
  {
    "name": "Tupelo Regional Airport",
    "code": "TUP",
    "latitude": 34.2681,
    "longitude": -88.7699
  },
  {
    "name": "Santa Maria Pub Cpt G Allan Hancock Airport",
    "code": "SMX",
    "latitude": 34.8989,
    "longitude": -120.457
  },
  {
    "name": "Salina Municipal Airport",
    "code": "SLN",
    "latitude": 38.791,
    "longitude": -97.6522
  },
  {
    "name": "Adirondack Regional Airport",
    "code": "SLK",
    "latitude": 44.3853,
    "longitude": -74.2062
  },
  {
    "name": "Sheridan County Airport",
    "code": "SHR",
    "latitude": 44.7692,
    "longitude": -106.98
  },
  {
    "name": "San Luis County Regional Airport",
    "code": "SBP",
    "latitude": 35.2368,
    "longitude": -120.642
  },
  {
    "name": "Rutland State Airport",
    "code": "RUT",
    "latitude": 43.5294,
    "longitude": -72.9496
  },
  {
    "name": "Rock Springs Sweetwater County Airport",
    "code": "RKS",
    "latitude": 41.5942,
    "longitude": -109.065
  },
  {
    "name": "Rhinelander Oneida County Airport",
    "code": "RHI",
    "latitude": 45.6312,
    "longitude": -89.4675
  },
  {
    "name": "Reading Regional Carl A Spaatz Field",
    "code": "RDG",
    "latitude": 40.3785,
    "longitude": -75.9652
  },
  {
    "name": "Pease International Tradeport",
    "code": "PSM",
    "latitude": 43.0779,
    "longitude": -70.8233
  },
  {
    "name": "Pellston Regional Airport of Emmet County Airport",
    "code": "PLN",
    "latitude": 45.5709,
    "longitude": -84.7967
  },
  {
    "name": "Pierre Regional Airport",
    "code": "PIR",
    "latitude": 44.3827,
    "longitude": -100.286
  },
  {
    "name": "Pocatello Regional Airport",
    "code": "PIH",
    "latitude": 42.9098,
    "longitude": -112.596
  },
  {
    "name": "Hattiesburg Laurel Regional Airport",
    "code": "PIB",
    "latitude": 31.4671,
    "longitude": -89.3371
  },
  {
    "name": "Owensboro Daviess County Airport",
    "code": "OWB",
    "latitude": 37.7401,
    "longitude": -87.1668
  },
  {
    "name": "Southwest Oregon Regional Airport",
    "code": "OTH",
    "latitude": 43.4171,
    "longitude": -124.246
  },
  {
    "name": "Northwest Alabama Regional Airport",
    "code": "MSL",
    "latitude": 34.7453,
    "longitude": -87.6102
  },
  {
    "name": "Frank Wiley Field",
    "code": "MLS",
    "latitude": 46.428,
    "longitude": -105.886
  },
  {
    "name": "Muskegon County Airport",
    "code": "MKG",
    "latitude": 43.1695,
    "longitude": -86.2382
  },
  {
    "name": "Lynchburg Regional Preston Glenn Field",
    "code": "LYH",
    "latitude": 37.3267,
    "longitude": -79.2004
  },
  {
    "name": "Lewistown Municipal Airport",
    "code": "LWT",
    "latitude": 47.0493,
    "longitude": -109.467
  },
  {
    "name": "Lancaster Airport",
    "code": "LNS",
    "latitude": 40.1217,
    "longitude": -76.2961
  },
  {
    "name": "Klamath Falls Airport",
    "code": "LMT",
    "latitude": 42.1561,
    "longitude": -121.733
  },
  {
    "name": "Lebanon Municipal Airport",
    "code": "LEB",
    "latitude": 43.6261,
    "longitude": -72.3042
  },
  {
    "name": "North Platte Regional Airport Lee Bird Field",
    "code": "LBF",
    "latitude": 41.1262,
    "longitude": -100.684
  },
  {
    "name": "Arnold Palmer Regional Airport",
    "code": "LBE",
    "latitude": 40.2759,
    "longitude": -79.4048
  },
  {
    "name": "Laramie Regional Airport",
    "code": "LAR",
    "latitude": 41.3121,
    "longitude": -105.675
  },
  {
    "name": "Jamestown Regional Airport",
    "code": "JMS",
    "latitude": 46.9297,
    "longitude": -98.6782
  },
  {
    "name": "Kirksville Regional Airport",
    "code": "IRK",
    "latitude": 40.0935,
    "longitude": -92.5449
  },
  {
    "name": "Tri State Milton J Ferguson Field",
    "code": "HTS",
    "latitude": 38.3667,
    "longitude": -82.558
  },
  {
    "name": "Memorial Field",
    "code": "HOT",
    "latitude": 34.478,
    "longitude": -93.0962
  },
  {
    "name": "Central Nebraska Regional Airport",
    "code": "GRI",
    "latitude": 40.9675,
    "longitude": -98.3096
  },
  {
    "name": "Wokal Field Glasgow International Airport",
    "code": "GGW",
    "latitude": 48.2125,
    "longitude": -106.615
  },
  {
    "name": "Fayetteville Regional Grannis Field",
    "code": "FAY",
    "latitude": 34.9912,
    "longitude": -78.8803
  },
  {
    "name": "New Bedford Regional Airport",
    "code": "EWB",
    "latitude": 41.6761,
    "longitude": -70.9569
  },
  {
    "name": "Elko Regional Airport",
    "code": "EKO",
    "latitude": 40.8249,
    "longitude": -115.792
  },
  {
    "name": "Chippewa Valley Regional Airport",
    "code": "EAU",
    "latitude": 44.8658,
    "longitude": -91.4843
  },
  {
    "name": "DuBois Regional Airport",
    "code": "DUJ",
    "latitude": 41.1783,
    "longitude": -78.8987
  },
  {
    "name": "Dodge City Regional Airport",
    "code": "DDC",
    "latitude": 37.7634,
    "longitude": -99.9656
  },
  {
    "name": "Houghton County Memorial Airport",
    "code": "CMX",
    "latitude": 47.1684,
    "longitude": -88.4891
  },
  {
    "name": "William R Fairchild International Airport",
    "code": "CLM",
    "latitude": 48.1202,
    "longitude": -123.5
  },
  {
    "name": "Harrison Marion Regional Airport",
    "code": "CKB",
    "latitude": 39.2966,
    "longitude": -80.2281
  },
  {
    "name": "Chippewa County International Airport",
    "code": "CIU",
    "latitude": 46.2508,
    "longitude": -84.4724
  },
  {
    "name": "Cape Girardeau Regional Airport",
    "code": "CGI",
    "latitude": 37.2253,
    "longitude": -89.5708
  },
  {
    "name": "Del Norte County Airport",
    "code": "CEC",
    "latitude": 41.7802,
    "longitude": -124.237
  },
  {
    "name": "Southeast Iowa Regional Airport",
    "code": "BRL",
    "latitude": 40.7832,
    "longitude": -91.1255
  },
  {
    "name": "Brunswick Golden Isles Airport",
    "code": "BQK",
    "latitude": 31.2588,
    "longitude": -81.4665
  },
  {
    "name": "Raleigh County Memorial Airport",
    "code": "BKW",
    "latitude": 37.7873,
    "longitude": -81.1242
  },
  {
    "name": "Western Nebraska Regional Airport",
    "code": "BFF",
    "latitude": 41.874,
    "longitude": -103.596
  },
  {
    "name": "Bradford Regional Airport",
    "code": "BFD",
    "latitude": 41.8031,
    "longitude": -78.6401
  },
  {
    "name": "Watertown Regional Airport",
    "code": "ATY",
    "latitude": 44.914,
    "longitude": -97.1547
  },
  {
    "name": "Alpena County Regional Airport",
    "code": "APN",
    "latitude": 45.0781,
    "longitude": -83.5603
  },
  {
    "name": "Walla Walla Regional Airport",
    "code": "ALW",
    "latitude": 46.0949,
    "longitude": -118.288
  },
  {
    "name": "Waterloo Regional Airport",
    "code": "ALO",
    "latitude": 42.5571,
    "longitude": -92.4003
  },
  {
    "name": "Alamogordo White Sands Regional Airport",
    "code": "ALM",
    "latitude": 32.8399,
    "longitude": -105.991
  },
  {
    "name": "Athens Ben Epps Airport",
    "code": "AHN",
    "latitude": 33.9486,
    "longitude": -83.3263
  },
  {
    "name": "Southwest Georgia Regional Airport",
    "code": "ABY",
    "latitude": 31.5355,
    "longitude": -84.1945
  },
  {
    "name": "Aberdeen Regional Airport",
    "code": "ABR",
    "latitude": 45.4491,
    "longitude": -98.4218
  },
  {
    "name": "Fremont Airport",
    "code": "",
    "latitude": 41.3331,
    "longitude": -83.1612
  },
  {
    "name": "Aleknagik Airport",
    "code": "WKK",
    "latitude": 59.2826,
    "longitude": -158.618
  },
  {
    "name": "Brookings Regional Airport",
    "code": "BKX",
    "latitude": 44.3048,
    "longitude": -96.8169
  },
  {
    "name": "Mercer County Airport",
    "code": "BLF",
    "latitude": 37.2958,
    "longitude": -81.2077
  },
  {
    "name": "Kearney Municipal Airport",
    "code": "EAR",
    "latitude": 40.727,
    "longitude": -99.0068
  },
  {
    "name": "Mid Delta Regional Airport",
    "code": "GLH",
    "latitude": 33.4829,
    "longitude": -90.9856
  },
  {
    "name": "Laughlin-Bullhead Intl",
    "code": "IFP",
    "latitude": 35.1574,
    "longitude": -114.56
  },
  {
    "name": "Kingman Airport",
    "code": "IGM",
    "latitude": 35.2595,
    "longitude": -113.938
  },
  {
    "name": "Tri Cities Airport",
    "code": "PSC",
    "latitude": 46.2647,
    "longitude": -119.119
  },
  {
    "name": "Akutan Seaplane Base",
    "code": "KQA",
    "latitude": 54.1325,
    "longitude": -165.785
  },
  {
    "name": "Grant County Airport",
    "code": "SVC",
    "latitude": 32.6365,
    "longitude": -108.156
  },
  {
    "name": "Lopez Island Airport",
    "code": "LPS",
    "latitude": 48.4839,
    "longitude": -122.938
  },
  {
    "name": "Worcester Regional Airport",
    "code": "ORH",
    "latitude": 42.2673,
    "longitude": -71.8757
  },
  {
    "name": "New Rochelle Amtrak Station",
    "code": "",
    "latitude": 40.913923,
    "longitude": -73.782008
  },
  {
    "name": "Anoka County Blaine Airport",
    "code": "",
    "latitude": 45.1448889,
    "longitude": -93.2101944
  },
  {
    "name": "New Haven Rail Station",
    "code": "ZVE",
    "latitude": 41.298669,
    "longitude": -72.925992
  },
  {
    "name": "Chicago Union Station",
    "code": "",
    "latitude": 41.8791966,
    "longitude": -87.6388507
  },
  {
    "name": "Bremerton National",
    "code": "PWT",
    "latitude": 47.490244,
    "longitude": -122.764814
  },
  {
    "name": "Spencer Muni",
    "code": "SPW",
    "latitude": 43.165527,
    "longitude": -95.202805
  },
  {
    "name": "Jefferson City Memorial Airport",
    "code": "JEF",
    "latitude": 38.5912,
    "longitude": -92.1561
  },
  {
    "name": "Grand Canyon West Airport",
    "code": "GCW",
    "latitude": 35.5925,
    "longitude": -113.4859
  },
  {
    "name": "Boulder City Municipal Airport",
    "code": "BLD",
    "latitude": 35.5651,
    "longitude": -114.514
  },
  {
    "name": "Glenview Amtrak Station",
    "code": "",
    "latitude": 42.074197,
    "longitude": -87.805346
  },
  {
    "name": "Baltimore Penn Station",
    "code": "",
    "latitude": 39.307408,
    "longitude": -76.615552
  },
  {
    "name": "Provincetown Muni",
    "code": "PVC",
    "latitude": 42.071945,
    "longitude": -70.22139
  },
  {
    "name": "Kenmore Air Harbor Seaplane Base",
    "code": "LKE",
    "latitude": 47.629,
    "longitude": -122.339
  },
  {
    "name": "Fullerton Municipal Airport",
    "code": "FUL",
    "latitude": 33.521925,
    "longitude": -117.584722
  },
  {
    "name": "Concord Rgnl",
    "code": "",
    "latitude": 35.387775,
    "longitude": -80.709136
  },
  {
    "name": "Friedman Mem",
    "code": "SUN",
    "latitude": 43.504444,
    "longitude": -114.296194
  },
  {
    "name": "Mason City Municipal",
    "code": "MCW",
    "latitude": 43.2247,
    "longitude": -93.4067
  },
  {
    "name": "Byron Airport",
    "code": "",
    "latitude": 37.8284,
    "longitude": -121.626
  },
  {
    "name": "Fortman Airport",
    "code": "1OH",
    "latitude": 40.5553253,
    "longitude": -84.3866186
  },
  {
    "name": "Pangborn Field",
    "code": "EAT",
    "latitude": 47.398,
    "longitude": -120.206
  },
  {
    "name": "Wittman Regional Airport",
    "code": "OSH",
    "latitude": 44.024983,
    "longitude": -88.551336
  },
  {
    "name": "Southwest Michigan Regional Airport",
    "code": "BEH",
    "latitude": 42.1285833,
    "longitude": -86.4285
  },
  {
    "name": "Waukesha County Airport",
    "code": "UES",
    "latitude": 43.0410278,
    "longitude": -88.2370556
  },
  {
    "name": "Galt Field Airport",
    "code": "10C",
    "latitude": 42.4028889,
    "longitude": -88.3751111
  },
  {
    "name": "Everglades Airpark",
    "code": "X01",
    "latitude": 25.8488611,
    "longitude": -81.3902778
  },
  {
    "name": "Togiak Airport",
    "code": "TOG",
    "latitude": 59.0528,
    "longitude": -160.397
  },
  {
    "name": "Port Heiden Airport",
    "code": "PTH",
    "latitude": 56.9591,
    "longitude": -158.633
  },
  {
    "name": "King Cove Airport",
    "code": "KVC",
    "latitude": 55.1163,
    "longitude": -162.266
  },
  {
    "name": "New Stuyahok Airport",
    "code": "KNW",
    "latitude": 59.4499,
    "longitude": -157.328
  },
  {
    "name": "Igiugig Airport",
    "code": "IGG",
    "latitude": 59.324,
    "longitude": -155.902
  },
  {
    "name": "Deering Airport",
    "code": "DRG",
    "latitude": 66.0696,
    "longitude": -162.766
  },
  {
    "name": "Sand Point Airport",
    "code": "SDP",
    "latitude": 55.315,
    "longitude": -160.523
  },
  {
    "name": "Hagerstown Regional Richard A Henson Field",
    "code": "HGR",
    "latitude": 39.7079,
    "longitude": -77.7295
  },
  {
    "name": "Port Clarence Coast Guard Station",
    "code": "KPC",
    "latitude": 65.2537,
    "longitude": -166.859
  },
  {
    "name": "Arctic Village Airport",
    "code": "ARC",
    "latitude": 68.1147,
    "longitude": -145.579
  },
  {
    "name": "Noatak Airport",
    "code": "WTK",
    "latitude": 67.5661,
    "longitude": -162.975
  },
  {
    "name": "Savoonga Airport",
    "code": "SVA",
    "latitude": 63.6864,
    "longitude": -170.493
  },
  {
    "name": "Shishmaref Airport",
    "code": "SHH",
    "latitude": 66.2496,
    "longitude": -166.089
  },
  {
    "name": "Ruby Airport",
    "code": "RBY",
    "latitude": 64.7272,
    "longitude": -155.47
  },
  {
    "name": "Point Hope Airport",
    "code": "PHO",
    "latitude": 68.3488,
    "longitude": -166.799
  },
  {
    "name": "Mekoryuk Airport",
    "code": "MYU",
    "latitude": 60.3714,
    "longitude": -166.271
  },
  {
    "name": "Kivalina Airport",
    "code": "KVL",
    "latitude": 67.7362,
    "longitude": -164.563
  },
  {
    "name": "St Marys Airport",
    "code": "KSM",
    "latitude": 62.0605,
    "longitude": -163.302
  },
  {
    "name": "Kaltag Airport",
    "code": "KAL",
    "latitude": 64.3191,
    "longitude": -158.741
  },
  {
    "name": "Hooper Bay Airport",
    "code": "HPB",
    "latitude": 61.5239,
    "longitude": -166.147
  },
  {
    "name": "Gambell Airport",
    "code": "GAM",
    "latitude": 63.7668,
    "longitude": -171.733
  },
  {
    "name": "Atqasuk Edward Burnell Sr Memorial Airport",
    "code": "ATK",
    "latitude": 70.4673,
    "longitude": -157.436
  },
  {
    "name": "Anvik Airport",
    "code": "ANV",
    "latitude": 62.6467,
    "longitude": -160.191
  },
  {
    "name": "Anaktuvuk Pass Airport",
    "code": "AKP",
    "latitude": 68.1336,
    "longitude": -151.743
  },
  {
    "name": "Fort Worth NAS",
    "code": "",
    "latitude": 32.769167,
    "longitude": -97.441528
  },
  {
    "name": "Gary Chicago International Airport",
    "code": "GYY",
    "latitude": 41.6163,
    "longitude": -87.4128
  },
  {
    "name": "Brainerd Lakes Rgnl",
    "code": "BRD",
    "latitude": 46.398308,
    "longitude": -94.138078
  },
  {
    "name": "Greenbrier Valley Airport",
    "code": "LWB",
    "latitude": 37.858333,
    "longitude": -80.399444
  },
  {
    "name": "Pitt-Greenville Airport",
    "code": "PGV",
    "latitude": 35.635278,
    "longitude": -77.385278
  },
  {
    "name": "Chefornak Airport",
    "code": "CYF",
    "latitude": 60.149167,
    "longitude": -164.285556
  },
  {
    "name": "Oxnard - Ventura County",
    "code": "OXR",
    "latitude": 34.200833,
    "longitude": -119.207222
  },
  {
    "name": "Branson LLC",
    "code": "BKG",
    "latitude": 36.531994,
    "longitude": -93.200556
  },
  {
    "name": "Penn Station",
    "code": "ZBP",
    "latitude": 39.307222,
    "longitude": -76.615556
  },
  {
    "name": "Penn Station",
    "code": "ZYP",
    "latitude": 40.7505,
    "longitude": -73.9935
  },
  {
    "name": "Stratton ANGB - Schenectady County Airpor",
    "code": "SCH",
    "latitude": 42.85245555,
    "longitude": -73.928866666
  },
  {
    "name": "St. Augustine Airport",
    "code": "UST",
    "latitude": 29.959167,
    "longitude": -81.339722
  },
  {
    "name": "Charles M Schulz Sonoma Co",
    "code": "STS",
    "latitude": 38.508978,
    "longitude": -122.81288
  },
  {
    "name": "Kissimmee Gateway Airport",
    "code": "ISM",
    "latitude": 28.289806,
    "longitude": -81.437083
  },
  {
    "name": "Lake City Municipal Airport",
    "code": "LCQ",
    "latitude": 30.181944,
    "longitude": -82.576944
  },
  {
    "name": "DeLand Municipal Airport",
    "code": "",
    "latitude": 29.066944,
    "longitude": -81.283889
  },
  {
    "name": "Haller Airpark Airport",
    "code": "",
    "latitude": 29.903021,
    "longitude": -81.685923
  },
  {
    "name": "Logan-Cache",
    "code": "LGU",
    "latitude": 41.791,
    "longitude": -111.852
  },
  {
    "name": "Brigham City",
    "code": "BMC",
    "latitude": 41.552,
    "longitude": -112.062
  },
  {
    "name": "Malad City",
    "code": "MLD",
    "latitude": 42.17,
    "longitude": -112.289
  },
  {
    "name": "Aspen Pitkin County Sardy Field",
    "code": "ASE",
    "latitude": 39.2232,
    "longitude": -106.869
  },
  {
    "name": "Hilton Head",
    "code": "HHH",
    "latitude": 32.216,
    "longitude": -80.752
  },
  {
    "name": "Philadelphia 30th St Station",
    "code": "ZFV",
    "latitude": 39.9557,
    "longitude": -75.182
  },
  {
    "name": "KBWD",
    "code": "BWD",
    "latitude": 31.7936111,
    "longitude": -98.9565
  },
  {
    "name": "Mexia - Limestone County Airport",
    "code": "LXY",
    "latitude": 31.6411783,
    "longitude": -96.5144594
  },
  {
    "name": "Kerrville Municipal Airport",
    "code": "ERV",
    "latitude": 29.9766667,
    "longitude": -99.0854722
  },
  {
    "name": "Sussex Co",
    "code": "GED",
    "latitude": 38.689194,
    "longitude": -75.358889
  },
  {
    "name": "Great Bend Municipal",
    "code": "GBN",
    "latitude": 38.344167,
    "longitude": -98.859167
  },
  {
    "name": "Hays Regional Airport",
    "code": "HYS",
    "latitude": 38.8422,
    "longitude": -99.2732
  },
  {
    "name": "Spirit Of St Louis",
    "code": "SUS",
    "latitude": 38.662119,
    "longitude": -90.652044
  },
  {
    "name": "Ely Municipal",
    "code": "LYU",
    "latitude": 47.824444,
    "longitude": -91.830833
  },
  {
    "name": "Grand Rapids Itasca County",
    "code": "GPZ",
    "latitude": 47.211111,
    "longitude": -93.509722
  },
  {
    "name": "Thief River Falls",
    "code": "TVF",
    "latitude": 48.065556,
    "longitude": -96.185
  },
  {
    "name": "Eagle River",
    "code": "EGV",
    "latitude": 45.932333,
    "longitude": -89.268283
  },
  {
    "name": "Lakeland",
    "code": "ARV",
    "latitude": 45.927778,
    "longitude": -89.730833
  },
  {
    "name": "Ankeny Regl Airport",
    "code": "IKV",
    "latitude": 41.691389,
    "longitude": -93.566389
  },
  {
    "name": "Corpus Christi NAS",
    "code": "NGP",
    "latitude": 27.692701,
    "longitude": -97.290376
  },
  {
    "name": "Avalon",
    "code": "AVX",
    "latitude": 33.405,
    "longitude": -118.415833
  },
  {
    "name": "Mojave",
    "code": "MHV",
    "latitude": 35.059364,
    "longitude": -118.151856
  },
  {
    "name": "Kenmore Air Harbor Inc Seaplane Base",
    "code": "KEH",
    "latitude": 47.7548,
    "longitude": -122.259
  },
  {
    "name": "Hutchinson Municipal Airport",
    "code": "HUT",
    "latitude": 38.0655,
    "longitude": -97.8606
  },
  {
    "name": "Eagle County Airport",
    "code": "EGA",
    "latitude": 39.6427611,
    "longitude": -106.9159347
  },
  {
    "name": "Oak Lawn Train Station",
    "code": "",
    "latitude": 41.7198242969588,
    "longitude": -87.7488327026367
  },
  {
    "name": "Wrigleyville",
    "code": "",
    "latitude": 41.948958067066,
    "longitude": -87.6587533950806
  },
  {
    "name": "Rosecrans Mem",
    "code": "STJ",
    "latitude": 39.771944,
    "longitude": -94.909706
  },
  {
    "name": "Hartford Union Station",
    "code": "ZRT",
    "latitude": 41.76888,
    "longitude": -72.6815
  },
  {
    "name": "Stamford Amtrak Station",
    "code": "ZTF",
    "latitude": 41.046937,
    "longitude": -73.541493
  },
  {
    "name": "Newark Penn Station",
    "code": "ZRP",
    "latitude": 40.734722,
    "longitude": -74.164167
  },
  {
    "name": "Volk Fld",
    "code": "VOK",
    "latitude": 43.938956,
    "longitude": -90.253433
  },
  {
    "name": "BFT County Airport",
    "code": "BFT",
    "latitude": 32.41083,
    "longitude": -80.635
  },
  {
    "name": "Gunnison - Crested Butte",
    "code": "GUC",
    "latitude": 38.533889,
    "longitude": -106.933056
  },
  {
    "name": "Zamperini Field Airport",
    "code": "TOA",
    "latitude": 33.803392,
    "longitude": -118.339611
  },
  {
    "name": "Manistee County-Blacker Airport",
    "code": "MBL",
    "latitude": 44.2725,
    "longitude": -86.246944
  },
  {
    "name": "Hickam Air Force Base",
    "code": "",
    "latitude": 21.318681,
    "longitude": -157.922427
  },
  {
    "name": "Charlotte County-Punta Gorda Airport",
    "code": "PGD",
    "latitude": 26.919722,
    "longitude": -81.990556
  },
  {
    "name": "Grand Canyon Heliport",
    "code": "JGC",
    "latitude": 35.96666666,
    "longitude": -112.13333333
  },
  {
    "name": "Northern Aroostook Regional Airport",
    "code": "WFK",
    "latitude": 47.285556,
    "longitude": -68.312778
  },
  {
    "name": "Chautauqua County-Jamestown",
    "code": "JHW",
    "latitude": 42.153333,
    "longitude": -79.258056
  },